관리기관명,소재지도로명주소,소재지지번주소,설치목적구분, 카메라대수 ,카메라화소수,촬영방면정보,보관일수,설치년월,관리기관전화번호,위도 ,경도,데이터기준일자
서울특별시동작구청,서울특별시 동작구 장승배기로23길 10,,생활방범,3,,,,,02-820-2906,37.510141,126.939452,2020.3.24
서울특별시동작구청,서울특별시 동작구 노량진로8길 40 마당쇠숯불갈비,,생활방범,3,,,,,02-820-2906,37.512401,126.937588,2020.3.24
서울특별시동작구청,서울특별시 동작구 장승배기로18길 27,,생활방범,3,,,,,02-820-2906,37.507402,126.941599,2020.3.24
서울특별시동작구청,서울특별시 동작구 만양로14다길 7,,생활방범,1,,,,,02-820-2906,37.511299,126.94531,2020.3.24
서울특별시동작구청,서울특별시 동작구 장승배기로22길 44(노량진2동 226-15),,생활방범,1,,,,,02-820-2906,37.508595,126.941561,2020.3.24
서울특별시동작구청,서울특별시 동작구 장승배기로19다길 24(노량진2동 302-27),,생활방범,1,,,,,02-820-2906,37.509271,126.937572,2020.3.24
서울특별시동작구청,서울특별시 동작구 장승배기로24가길 39(노량진1동 232-52),,생활방범,1,,,,,02-820-2906,37.511253,126.942072,2020.3.24
서울특별시동작구청,서울특별시 동작구 노량진로26길 65(노량진1동 485-2),,생활방범,1,,,,,02-820-2906,37.5097,126.955522,2020.3.24
서울특별시동작구청,서울특별시 동작구 노량진로18길 20(노량진1동 408-1),,생활방범,3,,,,,02-820-2906,37.511993,126.95097,2020.3.24
서울특별시동작구청,서울특별시 동작구 상도로60길 35(상도1동 126-65) 동녘빌라,,생활방범,3,,,,,02-820-2906,37.492257,126.954596,2020.3.24
서울특별시동작구청,서울특별시 동작구 상도로67길 20(상도1동 504-13) 할인마트,,생활방범,4,,,,,02-820-2906,37.494556,126.956525,2020.3.24
서울특별시동작구청,서울특별시 동작구 상도로41가길 6(상도1동 465),,생활방범,4,,,,,02-820-2906,37.502511,126.950148,2020.3.24
서울특별시동작구청,서울특별시 동작구 상도로 41길 50(상도1동 440),,생활방범,4,,,,,02-820-2906,37.502509,126.95185,2020.3.24
서울특별시동작구청,서울특별시 동작구 상도로47다길 32(상도1동 319-1),,생활방범,4,,,,,02-820-2906,37.501578,126.953161,2020.3.24
서울특별시동작구청,서울특별시 동작구 상도로56길 6(상도1동 473-7),,생활방범,4,,,,,02-820-2906,37.496134,126.952592,2020.3.24
서울특별시동작구청,서울특별시 동작구 상도로15마길 22(상도2동 356-85) 서진파크빌라,,생활방범,4,,,,,02-820-2906,37.503376,126.933614,2020.3.24
서울특별시동작구청,서울특별시 동작구 상도로15아길 18(상도2동 361-52) 에비앙 엘리지,,생활방범,3,,,,,02-820-2906,37.504266,126.93464,2020.3.24
서울특별시동작구청,서울특별시 동작구 상도로26가길 8(상도2동 183-22) 오륙도해물탕,,생활방범,3,,,,,02-820-2906,37.503636,126.938269,2020.3.24
서울특별시동작구청,서울특별시 동작구 만양로1길 18(상도2동 22-43),,생활방범,3,,,,,02-820-2906,37.506361,126.946482,2020.3.24
서울특별시동작구청,서울특별시 동작구 대방동2길 38,,생활방범,3,,,,,02-820-2906,37.502696,126.927738,2020.3.24
서울특별시동작구청,서울특별시 동작구 국사봉10길 20(상도3동 299-109) 그린빌라,,생활방범,3,,,,,02-820-2906,37.495284,126.93111,2020.3.24
서울특별시동작구청,서울특별시 동작구 성대로6가길 41(상도3동 256-219),,생활방범,4,,,,,02-820-2906,37.496948,126.933476,2020.3.24
서울특별시동작구청,서울특별시 동작구 국사봉5길 1(상도3동 304-6),,생활방범,4,,,,,02-820-2906,37.49776,126.930216,2020.3.24
서울특별시동작구청,서울특별시 동작구 성대로21가길 29(상도4동 244-47) 한아름슈퍼,,생활방범,3,,,,,02-820-2906,37.499267,126.935076,2020.3.24
서울특별시동작구청,서울특별시 동작구 성대로10길 55(상도4동 279-52) 행복슈퍼,,생활방범,4,,,,,02-820-2906,37.495933,126.93643,2020.3.24
서울특별시동작구청,서울특별시 동작구 성대로31길 33(상도4동 202-221),,생활방범,4,,,,,02-820-2906,37.500228,126.938806,2020.3.24
서울특별시동작구청,서울특별시 동작구 양녕로28길 54(상도4동 211-132) 구립우리어린이집,,생활방범,5,,,,,02-820-2906,37.498074,126.946702,2020.3.24
서울특별시동작구청,서울특별시 동작구 서달로8가길2(흑석동 93-147),,생활방범,3,,,,,02-820-2906,37.505868,126.961821,2020.3.24
서울특별시동작구청,서울특별시 동작구 서달로10길 64(흑석동 84-10),,생활방범,1,,,,,02-820-2906,37.504228,126.962923,2020.3.24
서울특별시동작구청,서울특별시 동작구 흑석로3길 38-1(흑석동 200-12),,생활방범,3,,,,,02-820-2906,37.508554,126.955996,2020.3.24
서울특별시동작구청,서울특별시 동작구 서달로6길 19(흑석동 79-24),,생활방범,3,,,,,02-820-2906,37.503286,126.961867,2020.3.24
서울특별시동작구청,서울특별시 동작구 대방동3길 39,,생활방범,4,,,,,02-820-2906,37.50129,126.925405,2020.3.24
서울특별시동작구청,서울특별시 동작구 대방동2길 22,,생활방범,2,,,,,02-820-2906,37.501632,126.928497,2020.3.24
서울특별시동작구청,서울특별시 동작구 등용로4길 43(대방동 13-4),,생활방범,4,,,,,02-820-2906,37.50754,126.934881,2020.3.24
서울특별시동작구청,서울특별시 동작구 여의대방로62길 14(대방동 101-5)  주정차-24 같이,,생활방범,4,,,,,02-820-2906,37.513961,126.927954,2020.3.24
서울특별시동작구청,서울특별시 동작구 대방동 9길 14(대방동 391-249),,생활방범,3,,,,,02-820-2906,37.502113,126.926474,2020.3.24
서울특별시동작구청,서울특별시 동작구 여의대방로24라길 13(대방동 415-47),,생활방범,3,,,,,02-820-2906,37.498486,126.92241,2020.3.24
서울특별시동작구청,서울특별시 동작구 신대방2나길 1(신대방1동 621-1) 경농상회 앞,,생활방범,3,,,,,02-820-2906,37.489637,126.971126,2020.3.24
서울특별시동작구청,서울특별시 동작구 신대방1길 72(신대방1동 696-4),,생활방범,3,,,,,02-820-2906,37.485881,126.907861,2020.3.24
서울특별시동작구청,서울특별시 동작구 신대방1동 631-38 문창초등학교 옆,,생활방범,3,,,,,02-820-2906,37.488202,126.913845,2020.3.24
서울특별시동작구청,서울특별시 동작구 신대방1동 459-5 문창초등학교 옆,,생활방범,2,,,,,02-820-2906,37.489168,126.915635,2020.3.24
서울특별시동작구청,서울특별시 동작구 신대방14길 15(신대방1동 600-57) 천안슈퍼 부근,,생활방범,4,,,,,02-820-2906,37.489686,126.91114,2020.3.24
서울특별시동작구청,서울특별시 동작구 신대방14가길 47(신대방1동 632-58),,생활방범,3,,,,,02-820-2906,37.489872,126.913336,2020.3.24
서울특별시동작구청,서울특별시 동작구 여의대방로22카길 47(신대방2동 360-186) 로얄빌라,,생활방범,3,,,,,02-820-2906,37.496137,126.925826,2020.3.24
서울특별시동작구청,서울특별시 동작구 국사봉2길 29(신대방동 339-21),,생활방범,3,,,,,02-820-2906,37.497135,126.928482,2020.3.24
서울특별시동작구청,서울특별시 동작구 서울특별시 동작구 보라매로9길 12(신대방2동 344-88),,생활방범,4,,,,,02-820-2906,37.495,126.926443,2020.3.24
서울특별시동작구청,서울특별시 동작구 여의대방로22라길 23(신대방2동 366-131),,생활방범,5,,,,,02-820-2906,37.495315,126.923357,2020.3.24
서울특별시동작구청,서울특별시 동작구 동작대로29가길 18(사당2동 89-52),,생활방범,3,,,,,02-820-2906,37.488725,126.981507,2020.3.24
서울특별시동작구청,서울특별시 동작구 동작대로 43길 35 (사당2동 102-7) 청남빌라,,생활방범,4,,,,,02-820-2906,37.49718,126.98061,2020.3.24
서울특별시동작구청,서울특별시 동작구 동작대로35가길 56(사당2동 68-18) 현대슈퍼 앞,,생활방범,3,,,,,02-820-2906,37.491329,126.978754,2020.3.24
서울특별시동작구청,서울특별시 동작구 동작대로27길 38(사당2동 129-11),,생활방범,4,,,,,02-820-2906,37.487471,126.979921,2020.3.24
서울특별시동작구청,서울특별시 동작구 동작대로29길 63-1(사당2동 127-40),,생활방범,3,,,,,02-820-2906,37.488666,126.978653,2020.3.24
서울특별시동작구청,서울특별시 동작구 남부순환로257가길 32(사당1동 419-24) 서안주택,,생활방범,1,,,,,02-820-2906,37.4788,126.975572,2020.3.24
서울특별시동작구청,서울특별시 동작구 남부순환로259길 10(사당1동 1050-2) 홈플러스 앞,,생활방범,3,,,,,02-820-2906,37.476405,126.972527,2020.3.24
서울특별시동작구청,서울특별시 동작구 사당로20길 63(사당1동 431-4),,생활방범,1,,,,,02-820-2906,37.480336,126.975619,2020.3.24
서울특별시동작구청,서울특별시 동작구 남부순환로265길 21(사당1동 1048-19),,생활방범,4,,,,,02-820-2906,37.47717,126.974711,2020.3.24
서울특별시동작구청,서울특별시 동작구 사당로29길 26(사당3동 141-97) 보람아트빌,,생활방범,3,,,,,02-820-2906,37.485536,126.97826,2020.3.24
서울특별시동작구청,서울특별시 동작구 동작대로35길 43(사당2동 69-13),,생활방범,1,,,,,02-820-2906,37.491442,126.98031,2020.3.24
서울특별시동작구청,서울특별시 동작구 사당로27길 12(사당3동 141-160),,생활방범,5,,,,,02-820-2906,37.484973,126.978914,2020.3.24
서울특별시동작구청,서울특별시 동작구 사당로9나길7(사당3동 220-38),,생활방범,4,,,,,02-820-2906,37.486125,126.970305,2020.3.24
서울특별시동작구청,서울특별시 동작구 솔밭로 74-1(사당5동 235-61) 구립우리어린이집,,생활방범,3,,,,,02-820-2906,37.483101,126.967271,2020.3.24
서울특별시동작구청,서울특별시 동작구 사당로2자길 2-15(사당5동 188-12),,생활방범,4,,,,,02-820-2906,37.489331,126.964628,2020.3.24
서울특별시동작구청,서울특별시 동작구 사당로2차길 36(사당5동 206-16),,생활방범,5,,,,,02-820-2906,37.487015,126.965974,2020.3.24
서울특별시동작구청,서울특별시 동작구 사당로14길 38(사당4동 278-50) 세븐일레븐,,생활방범,3,,,,,02-820-2906,37.482635,126.971011,2020.3.24
서울특별시동작구청,서울특별시 동작구 사당로16길 14(사당4동 266-2),,생활방범,3,,,,,02-820-2906,37.482728,126.97348,2020.3.24
서울특별시동작구청,서울특별시 동작구 남부순환로255라길 4(사당4동 303-27),,생활방범,4,,,,,02-820-2906,37.477351,126.970335,2020.3.24
서울특별시동작구청,서울특별시 동작구 사당로20다길 15(사당4동 316-32),,생활방범,4,,,,,02-820-2906,37.480667,126.973501,2020.3.24
서울특별시동작구청,서울특별시 동작구 노량진로14길 29(노량진1동 83-7) 은하맨션 앞,,생활방범,4,,,,,02-820-2906,37.512362,126.942534,2020.3.24
서울특별시동작구청,서울특별시 동작구 노량진로30길 55(노량진1동 43-4) 본동종합사회복지관 인근,,생활방범,4,,,,,02-820-2906,37.510953,126.956854,2020.3.24
서울특별시동작구청,서울특별시 동작구 상도로47길 8(상도1동 464-33) 장안마트 앞,,생활방범,4,,,,,02-820-2906,37.499693,126.95137,2020.3.24
서울특별시동작구청,서울특별시 동작구 매봉로 37(상도1동 512) 예담어린이집 앞,,생활방범,4,,,,,02-820-2906,37.506506,126.950991,2020.3.24
서울특별시동작구청,서울특별시 동작구 상도로 119 (상도3동 352-1) 앞,,생활방범,4,,,,,02-820-2906,37.501462,126.933041,2020.3.24
서울특별시동작구청,서울특별시 동작구 양녕로28길 8(상도4동 211-207) 에덴빌라 앞,,생활방범,3,,,,,02-820-2906,37.498969,126.94462,2020.3.24
서울특별시동작구청,서울특별시 동작구 성대로17길 78(상도동 244-52),,생활방범,4,,,,,02-820-2906,37.500512,126.934254,2020.3.24
서울특별시동작구청,서울특별시 동작구 현충로22길 52(흑석동 276-12) 명성슈퍼 앞,,생활방범,4,,,,,02-820-2906,37.504835,126.971261,2020.3.24
서울특별시동작구청,서울특별시 동작구 서달로14길 11(흑석동 6-21),,생활방범,3,,,,,02-820-2906,37.508022,126.96365,2020.3.24
서울특별시동작구청,서울특별시 동작구 동작대로35길 71(사당2동 67-8),,생활방범,4,,,,,02-820-2906,37.492523,126.979115,2020.3.24
서울특별시동작구청,서울특별시 동작구 사당로27길 86(사당3동 162-83),,생활방범,1,,,,,02-820-2906,37.486923,126.975568,2020.3.24
서울특별시동작구청,서울특별시 동작구 사당로13길 50(사당3동 1131-12) 구립청소년독서실 뒤,,생활방범,4,,,,,02-820-2906,37.48628,126.971528,2020.3.24
서울특별시동작구청,서울특별시 동작구 사당로20사길 29(사당4동 316-260) 남성중학교 뒤,,생활방범,3,,,,,02-820-2906,37.47911,126.972556,2020.3.24
서울특별시동작구청,서울특별시 동작구 사당로2아길 2(사당5동 188-1),,생활방범,3,,,,,02-820-2906,37.490168,126.964579,2020.3.24
서울특별시동작구청,서울특별시 동작구 사당동 213-9(사당로6길 5),,생활방범,1,,,,,02-820-2906,37.486624,126.967617,2020.3.24
서울특별시동작구청,서울특별시 동작구 대방동길 30(대방동 392-1) 성은교회 앞,,생활방범,4,,,,,02-820-2906,37.502094,126.927893,2020.3.24
서울특별시동작구청,서울특별시 동작구 등용로8가길 2(대방동 13-13) 미래하이츠빌 앞,,생활방범,3,,,,,02-820-2906,37.50689,126.933515,2020.3.24
서울특별시동작구청,서울특별시 동작구 신대방1길 126(신대방1동 698-5) 중외제약 앞 골목길,,생활방범,1,,,,,02-820-2906,37.485264,126.904984,2020.3.24
서울특별시동작구청,서울특별시 동작구 보라매로7가길 14 (신대방2동 344-150),,생활방범,4,,,,,02-820-2906,37.4939,126.925753,2020.3.24
서울특별시동작구청,서울특별시 동작구 국사봉2나길 19(신대방2동 348-79),,생활방범,1,,,,,02-820-2906,37.496934,126.929566,2020.3.24
서울특별시동작구청,서울특별시 동작구 여의대방로10길 100(신대방1동 717) 신동아 파밀리에아파트 진입로,,생활방범,1,,,,,02-820-2906,37.492062,126.914575,2020.3.24
서울특별시동작구청,서울특별시 동작구 신대방2길 1(신대방1동 618-17) 수연약국 앞,,생활방범,4,,,,,02-820-2906,37.487677,126.912608,2020.3.24
서울특별시동작구청,서울특별시 동작구 보라매로11길 14(신대방2동 366-40) 천주교 신대방동교회 내,,생활방범,1,,,,,02-820-2906,37.495509,126.926304,2020.3.24
서울특별시동작구청,서울특별시 동작구 상도로 38길 52(상도1동 159-48),,생활방범,1,,,,,02-820-2906,37.500997,126.948616,2020.3.24
서울특별시동작구청,서울특별시 동작구 국사봉16길 4(상도3동 299-156) 옆,,생활방범,1,,,,,02-820-2906,37.494577,126.932779,2020.3.24
서울특별시동작구청,서울특별시 동작구 성대로16길 45-8,,생활방범,1,,,,,02-820-2906,37.496504,126.938819,2020.3.24
서울특별시동작구청,서울특별시 동작구 양녕로22바길 66(상도4동 211-80),,생활방범,3,,,,,02-820-2906,37.49773,126.947165,2020.3.24
서울특별시동작구청,서울특별시 동작구 서달로6길 93(흑석동 76-80) 도림사 입구 맞은편,,생활방범,1,,,,,02-820-2906,37.500251,126.962356,2020.3.24
서울특별시동작구청,서울특별시 동작구 등용로10나길 13(대방동 44-311),,생활방범,3,,,,,02-820-2906,37.509785,126.934401,2020.3.24
서울특별시동작구청,서울특별시 동작구 사당로2다길 84(사당5동 190-190),,생활방범,3,,,,,02-820-2906,37.489607,126.962954,2020.3.24
서울특별시동작구청,서울특별시 동작구 노량진로26길 31(노량진1동 49),,생활방범,4,,,,,02-820-2906,37.511247,126.954867,2020.3.24
서울특별시동작구청,서울특별시 동작구 흑석로5길 1-2(흑석동 204-171),,생활방범,4,,,,,02-820-2906,37.50678,126.957067,2020.3.24
서울특별시동작구청,서울특별시 동작구 상도로47길 39(상도1동 338),,생활방범,4,,,,,02-820-2906,37.501089,126.952186,2020.3.24
서울특별시동작구청,서울특별시 동작구 상도로34다길 26(상도2동 159-161),,생활방범,4,,,,,02-820-2906,37.502801,126.945828,2020.3.24
서울특별시동작구청,서울특별시 동작구 성대로37길 44(상도2동 201-23),,생활방범,4,,,,,02-820-2906,37.500733,126.938986,2020.3.24
서울특별시동작구청,서울특별시 동작구 국사봉8길 77(상도3동 301-40),,생활방범,4,,,,,02-820-2906,37.493446,126.931367,2020.3.24
서울특별시동작구청,서울특별시 동작구 국사봉6길 39(상도3동 299-202),,생활방범,4,,,,,02-820-2906,37.495792,126.929981,2020.3.24
서울특별시동작구청,서울특별시 동작구 양녕로25가길 24(상도4동 210-244) ,,생활방범,4,,,,,02-820-2906,37.499117,126.942447,2020.3.24
서울특별시동작구청,서울특별시 동작구 사당로23길 170(사당3동 173-26),,생활방범,4,,,,,02-820-2906,37.489549,126.971344,2020.3.24
서울특별시동작구청,서울특별시 동작구 동작대로35길 120(사당2동 56-27),,생활방범,4,,,,,02-820-2906,37.492633,126.976701,2020.3.24
서울특별시동작구청,서울특별시 동작구 동작대로33길 23(사당2동 77-63),,생활방범,4,,,,,02-820-2906,37.49055,126.98104,2020.3.24
서울특별시동작구청,서울특별시 동작구 동작대로7길 80(사당1동 1038-25),,생활방범,4,,,,,02-820-2906,37.477791,126.978261,2020.3.24
서울특별시동작구청,서울특별시 동작구 사당로16라길 27(사당4동 278-109),,생활방범,5,,,,,02-820-2906,37.482028,126.969648,2020.3.24
서울특별시동작구청,서울특별시 동작구 사당로8길 24(사당5동 231-16),,생활방범,5,,,,,02-820-2906,37.484122,126.968809,2020.3.24
서울특별시동작구청,서울특별시 동작구 사당로20길 20(사당4동 321-109),,생활방범,3,,,,,02-820-2906,37.482189,126.975594,2020.3.24
서울특별시동작구청,서울특별시 동작구 남부순환로271길 14(사당1동 1041-11)사당노인종합복지관 주변(주정차-23같이),,생활방범,4,,,,,02-820-2906,37.47732,126.980062,2020.3.24
서울특별시동작구청,서울특별시 동작구 신대방16길 10(신대방1동 602-10),,생활방범,4,,,,,02-820-2906,37.490057,126.909711,2020.3.24
서울특별시동작구청,서울특별시 동작구 여의대방로22자길 1(신대방2동 360-24),,생활방범,4,,,,,02-820-2906,37.496973,126.924359,2020.3.24
서울특별시동작구청,서울특별시 동작구 장승배기로20길 4(노량진2동 229-135 이용국내과입구),,생활방범,4,,,,,02-820-2906,37.508377,126.940412,2020.3.24
서울특별시동작구청,서울특별시 동작구 장승배기로19길 42 (노량진2동 302-173),,생활방범,4,,,,,02-820-2906,37.50806,126.93763,2020.3.24
서울특별시동작구청,서울특별시 동작구 흑석로13길 7(흑석동 177-8),,생활방범,4,,,,,02-820-2906,37.508992,126.960979,2020.3.24
서울특별시동작구청,서울특별시 동작구 동작대로25길 48(사당2동 708-490),,생활방범,3,,,,,02-820-2906,37.485208,126.979901,2020.3.24
서울특별시동작구청,서울특별시 동작구 남부순환로267나길 14(사당1동 419-148),,생활방범,1,,,,,02-820-2906,37.47837,126.977286,2020.3.24
서울특별시동작구청,서울특별시 동작구 사당로16자길 27(사당동 300-59),,생활방범,3,,,,,02-820-2906,37.4799,126.97026,2020.3.24
서울특별시동작구청,서울특별시 동작구 상도로60가길 13(상도1동 126-51),,생활방범,1,,,,,02-820-2906,37.493465,126.954259,2020.3.24
서울특별시동작구청,서울특별시 동작구 양녕로25마길 20(상도4동 210-166),,생활방범,5,,,,,02-820-2906,37.498074,126.941218,2020.3.24
서울특별시동작구청,서울특별시 동작구 서울특별시 동작구 신대방길 19(신대방1동 691-36),,생활방범,4,,,,,02-820-2906,37.487844,126.91161,2020.3.24
서울특별시동작구청,서울특별시 동작구 노량진로6라길 1(노량진2동 294-35),,생활방범,1,,,,,02-820-2906,37.508871,126.936006,2020.3.24
서울특별시동작구청,서울특별시 동작구 노량진로32길 53 동작실버타운 뒤 용봉정근린공원 입구,,생활방범,4,,,,,02-820-2906,37.511584,126.957506,2020.3.24
서울특별시동작구청,서울특별시 동작구 장승배기로19길 12(노량진2동 306-5),,생활방범,5,,,,,02-820-2906,37.508094,126.939253,2020.3.24
서울특별시동작구청,서울특별시 동작구 상도로38길 12(상도1동 728),,생활방범,4,,,,,02-820-2906,37.502087,126.94754,2020.3.24
서울특별시동작구청,서울특별시 동작구 장승배기로9나길 32-1(상도2동 200-83),,생활방범,3,,,,,02-820-2906,37.501368,126.938624,2020.3.24
서울특별시동작구청,서울특별시 동작구 국사봉8길 70(상도3동 302-2),,생활방범,4,,,,,02-820-2906,37.493876,126.931079,2020.3.24
서울특별시동작구청,서울특별시 동작구 양녕로20길 65(상도4동 214-228),,생활방범,4,,,,,02-820-2906,37.495272,126.94413,2020.3.24
서울특별시동작구청,서울특별시 동작구 흑석로9길 24(흑석동 194-58),,생활방범,4,,,,,02-820-2906,37.507815,126.958876,2020.3.24
서울특별시동작구청,서울특별시 동작구 남부순환로257가길 1(사당1동 446-5),,생활방범,3,,,,,02-820-2906,37.477385,126.972679,2020.3.24
서울특별시동작구청,서울특별시 동작구 동작대로43길 1(사당2동 102-31),,생활방범,4,,,,,02-820-2906,37.496431,126.982458,2020.3.24
서울특별시동작구청,서울특별시 동작구 사당로9라길 25(사당3동 220-67),,생활방범,4,,,,,02-820-2906,37.487183,126.970132,2020.3.24
서울특별시동작구청,서울특별시 동작구 사당로16사길 59(사당4동 300-32),,생활방범,3,,,,,02-820-2906,37.479738,126.96939,2020.3.24
서울특별시동작구청,서울특별시 동작구 사당로2차길 2(사당5동 202-28),,생활방범,4,,,,,02-820-2906,37.487723,126.964627,2020.3.24
서울특별시동작구청,서울특별시 동작구 상도로 43-1(대방동 396-1),,생활방범,4,,,,,02-820-2906,37.500313,126.925295,2020.3.24
서울특별시동작구청,서울특별시 동작구 신대방4길 17(신대방1동 618-33),,생활방범,3,,,,,02-820-2906,37.488631,126.911938,2020.3.24
서울특별시동작구청,서울특별시 동작구 여의대방로22마길 37(신대방2동 364-170),,생활방범,5,,,,,02-820-2906,37.496716,126.922388,2020.3.24
서울특별시동작구청,서울특별시 동작구 만양로 12길 57(노량진1동 205-193),,생활방범,3,,,,,02-820-2906,37.510583,126.948289,2020.3.24
서울특별시동작구청,서울특별시 동작구 노량진로6다길 50(노량진2동 294-5),,생활방범,3,,,,,02-820-2906,37.508437,126.935886,2020.3.24
서울특별시동작구청,서울특별시 동작구 상도로47가길 34(상도1동 425-1),,생활방범,3,,,,,02-820-2906,37.501223,126.950681,2020.3.24
서울특별시동작구청,서울특별시 동작구 상도로15바길 22(상도2동 361-46),,생활방범,3,,,,,02-820-2906,37.504868,126.934725,2020.3.24
서울특별시동작구청,서울특별시 동작구 성대로6길 32(상도3동 313-36),,생활방범,4,,,,,02-820-2906,37.498655,126.931451,2020.3.24
서울특별시동작구청,서울특별시 동작구 성대로11길 69(상도4동 247-2),,생활방범,4,,,,,02-820-2906,37.500302,126.93354,2020.3.24
서울특별시동작구청,서울특별시 동작구 서달로12길 86(흑석동 62-11),,생활방범,3,,,,,02-820-2906,37.504363,126.96422,2020.3.24
서울특별시동작구청,서울특별시 동작구 남부순환로263길 18(사당1동 419-81),,생활방범,3,,,,,02-820-2906,37.477737,126.975788,2020.3.24
서울특별시동작구청,서울특별시 동작구 동작대로33가길 27(사당2동 72-12),,생활방범,4,,,,,02-820-2906,37.490807,126.981918,2020.3.24
서울특별시동작구청,서울특별시 동작구 사당로23아길 24(사당3동 180-26),,생활방범,3,,,,,02-820-2906,37.491504,126.969647,2020.3.24
서울특별시동작구청,서울특별시 동작구 남부순환로255바길 8(사당4동 303-5),,생활방범,3,,,,,02-820-2906,37.478304,126.971561,2020.3.24
서울특별시동작구청,서울특별시 동작구 솔밭로 102-1(사당5동 224-27),,생활방범,5,,,,,02-820-2906,37.485368,126.968174,2020.3.24
서울특별시동작구청,서울특별시 동작구 대방동 15길 26(대방동 388-19),,생활방범,4,,,,,02-820-2906,37.502806,126.922712,2020.3.24
서울특별시동작구청,서울특별시 동작구 신대방2나길 17(신대방1동 625-3),,생활방범,3,,,,,02-820-2906,37.489546,126.912827,2020.3.24
서울특별시동작구청,서울특별시 동작구 여의대방로22아길 72(신대방2동 366-259) ,,생활방범,3,,,,,02-820-2906,37.495693,126.924633,2020.3.24
서울특별시동작구청,서울특별시 동작구 현충로14길 26(흑석동 283-2) 이동식카메라,,생활방범,1,,,,,02-820-2906,37.505206,126.969323,2020.3.24
서울특별시동작구청,서울특별시 동작구 만양로10길 6 (노량진1동 215-156) 해남고시원앞,,생활방범,3,,,,,02-820-2906,37.509006,126.946658,2020.3.24
서울특별시동작구청,서울특별시 동작구 만양로14길 60 (노량진1동202-1)세종빌딩 ,,생활방범,3,,,,,02-820-2906,37.512502,126.947435,2020.3.24
서울특별시동작구청,서울특별시 동작구 노량진로 28길 39 (노량진1동 47-41) 제일슈퍼 앞,,생활방범,3,,,,,02-820-2906,37.511304,126.955926,2020.3.24
서울특별시동작구청,서울특별시 동작구 만양로 16길 9 (노량진1동 119-165),,생활방범,3,,,,,02-820-2906,37.511681,126.944576,2020.3.24
서울특별시동작구청,서울특별시 동작구 장승배기로 143 장미빌라 (노량진1동 232-5 노량진성당맞은편),,생활방범,3,,,,,02-820-2906,37.510838,126.942435,2020.3.24
서울특별시동작구청,서울특별시 동작구 만양로 12길 13 (노량진1동222-11) ,,생활방범,3,,,,,02-820-2906,37.510234,126.946324,2020.3.24
서울특별시동작구청,서울특별시 동작구 매봉로 79 극락정사 사거리(한전주),,생활방범,1,,,,,02-820-2906,37.508077,126.951433,2020.3.24
서울특별시동작구청,서울특별시 동작구 노량진로 26길47 (노량진1동51-2) 동양중학교 후문 골목,,생활방범,3,,,,,02-820-2906,37.510286,126.955277,2020.3.24
서울특별시동작구청,서울특별시 동작구 노량진로 10가길 28 (노량진2동279-6),,생활방범,3,,,,,02-820-2906,37.511645,126.936041,2020.3.24
서울특별시동작구청,서울특별시 동작구 장승배기로 19라길 34 (노량진2동294-459),,생활방범,3,,,,,02-820-2906,37.507002,126.936137,2020.3.24
서울특별시동작구청,서울특별시 동작구 노량진로 12길44 (노량진2동 255-11 한전주),,생활방범,1,,,,,02-820-2906,37.511515,126.937663,2020.3.24
서울특별시동작구청,서울특별시 동작구 노량진로 8나길 55 (노량진2동 291-16),,생활방범,3,,,,,02-820-2906,37.510085,126.937128,2020.3.24
서울특별시동작구청,서울특별시 동작구 장승배기로 27길 80 (노량진2동 300-6),,생활방범,3,,,,,02-820-2906,37.509453,126.938573,2020.3.24
서울특별시동작구청,서울특별시 동작구 등용로14길81 (노량진2동 266-14 정애정미용실앞),,생활방범,4,,,,,02-820-2906,37.512797,126.936003,2020.3.24
서울특별시동작구청,서울특별시 동작구 노량진로 6길79 (노량진2동289-42),,생활방범,3,,,,,02-820-2906,37.509686,126.936748,2020.3.24
서울특별시동작구청,서울특별시 동작구 상도로15길 111-7(상도동 360-4),,생활방범,3,,,,,02-820-2906,37.505059,126.936838,2020.3.24
서울특별시동작구청,서울특별시 동작구 상도로31길 49(상도2동 22-153),,생활방범,3,,,,,02-820-2906,37.506745,126.945935,2020.3.24
서울특별시동작구청,서울특별시 동작구 상도로 22길 25(상도2동 196-90) (한전주),,생활방범,1,,,,,02-820-2906,37.502136,126.93706,2020.3.24
서울특별시동작구청,서울특별시 동작구 장승배기로 9나길1 (상도2동 200-1 교육청맞은편),,생활방범,3,,,,,02-820-2906,37.502527,126.939514,2020.3.24
서울특별시동작구청,서울특별시 동작구 상도로 30길73 (상도2동 28-24 낙원경로당),,생활방범,3,,,,,02-820-2906,37.503809,126.94488,2020.3.24
서울특별시동작구청,서울특별시 동작구 장승배기로10길 28(상도2동 178-3),,생활방범,3,,,,,02-820-2906,37.504774,126.940745,2020.3.24
서울특별시동작구청,서울특별시 동작구 만양로 7 (상도2동 22-107 진양연립 길건너),,생활방범,3,,,,,02-820-2906,37.50554,126.946776,2020.3.24
서울특별시동작구청,서울특별시 동작구 성대로 6마길 10 (상도3동 279-170 신동아빌라),,생활방범,3,,,,,02-820-2906,37.495338,126.935133,2020.3.24
서울특별시동작구청,서울특별시 동작구 상도로 11길23 (상도3동 335-110)(한전주),,생활방범,1,,,,,02-820-2906,37.501938,126.929044,2020.3.24
서울특별시동작구청,서울특별시 동작구 상도로13나길 33(상도3동 335-202),,생활방범,3,,,,,02-820-2906,37.502663,126.929259,2020.3.24
서울특별시동작구청,서울특별시 동작구 상도로 13다길 1 (상도3동 335-98),,생활방범,3,,,,,02-820-2906,37.500765,126.930296,2020.3.24
서울특별시동작구청,서울특별시 동작구 상도로15사길 30 (상도3동 356-67),,생활방범,3,,,,,02-820-2906,37.503008,126.932949,2020.3.24
서울특별시동작구청,서울특별시 동작구 국사봉1길 178 (상도3동 283-48),,생활방범,3,,,,,02-820-2906,37.494809,126.934709,2020.3.24
서울특별시동작구청,서울특별시 동작구 성대로 6가길 24 (상도3동256-69),,생활방범,3,,,,,02-820-2906,37.49783,126.932901,2020.3.24
서울특별시동작구청,서울특별시 동작구 성대로 21길 54 (상도4동 244-131 상도초등학교 정문위),,생활방범,3,,,,,02-820-2906,37.500347,126.936413,2020.3.24
서울특별시동작구청,서울특별시 동작구 양녕로 22다길 27 (상도4동 214-56),,생활방범,3,,,,,02-820-2906,37.496815,126.945867,2020.3.24
서울특별시동작구청,서울특별시 동작구 성대로 14길 81 (상도4동 279-408),,생활방범,3,,,,,02-820-2906,37.494863,126.938693,2020.3.24
서울특별시동작구청,서울특별시 동작구 성대로 165 (상도4동 235-34 충남정육점옆),,생활방범,3,,,,,02-820-2906,37.498689,126.939487,2020.3.24
서울특별시동작구청,서울특별시 동작구 성대로1가길 24(상도4동 242-5),,생활방범,3,,,,,02-820-2906,37.501525,126.935744,2020.3.24
서울특별시동작구청,서울특별시 동작구 성대로 10길 3 (상도4동 261-20 안일약국 주변),,생활방범,3,,,,,02-820-2906,37.4975,126.934634,2020.3.24
서울특별시동작구청,서울특별시 동작구 성대로 16길 39 (상도4동 279-334 현대훼미리),,생활방범,3,,,,,02-820-2906,37.496808,126.937804,2020.3.24
서울특별시동작구청,서울특별시 동작구 양녕로 25길 51 (상도4동 210-285),,생활방범,3,,,,,02-820-2906,37.49706,126.941474,2020.3.24
서울특별시동작구청,서울특별시 동작구 등용로 10가길 7(대방동 44-104) (한전주),,생활방범,1,,,,,02-820-2906,37.509772,126.933194,2020.3.24
서울특별시동작구청,서울특별시 동작구 등용로 10길 44 (대방동 44-250 영진교회 앞),,생활방범,3,,,,,02-820-2906,37.510421,126.934101,2020.3.24
서울특별시동작구청,서울특별시 동작구 여의대방로 24다길 57 (대방동 410-10 코롱아파트 옆),,생활방범,3,,,,,02-820-2906,37.49879,126.924367,2020.3.24
서울특별시동작구청,서울특별시 동작구 상도로 11길 9-1(대방동 335-29 동작 노인복지관 옆),,생활방범,3,,,,,02-820-2906,37.500651,126.929372,2020.3.24
서울특별시동작구청,서울특별시 동작구 대방동 23길 45 (대방동 388-17),,생활방범,3,,,,,02-820-2906,37.50409,126.92266,2020.3.24
서울특별시동작구청,서울특별시 동작구 대방동 23길 21(대방동 380-1) ,,생활방범,3,,,,,02-820-2906,37.503972,126.924172,2020.3.24
서울특별시동작구청,서울특별시 동작구 여의대방로24나길 2(대방동 414-5),,생활방범,3,,,,,02-820-2906,37.498445,126.920952,2020.3.24
서울특별시동작구청,서울특별시 동작구 여의대방로 22 우성아파트사이약수터길(한전주) ,,생활방범,1,,,,,02-820-2906,37.492078,126.913195,2020.3.24
서울특별시동작구청,서울특별시 동작구 신대방14가길 23 (신대방1동 631-4 대천교회 앞)(한전주),,생활방범,1,,,,,02-820-2906,37.489967,126.912259,2020.3.24
서울특별시동작구청,서울특별시 동작구 신대방1길 32 (신대방1동694-20앞 삼거리),,생활방범,3,,,,,02-820-2906,37.48652,126.909988,2020.3.24
서울특별시동작구청,서울특별시 동작구 여의대방로 10길 73 (신대방1동 470-13),,생활방범,3,,,,,02-820-2906,37.493399,126.9149,2020.3.24
서울특별시동작구청,서울특별시 동작구 대림로 43 동작쌍떼빌아파트 놀이터,,생활방범,3,,,,,02-820-2906,37.487625,126.908275,2020.3.24
서울특별시동작구청,서울특별시 동작구 신대방3길 38 (신대방1동 689-57 댕기머리미용실),,생활방범,3,,,,,02-820-2906,37.487627,126.909689,2020.3.24
서울특별시동작구청,서울특별시 동작구 신대방6길 25 (신대방1동 616-54 아이비영재어린이집 앞),,생활방범,3,,,,,02-820-2906,37.488902,126.911369,2020.3.24
서울특별시동작구청,서울특별시 동작구 여의대방로16길 12-7 (신대방2동 498-44 주택가)(한전주),,생활방범,1,,,,,02-820-2906,37.496297,126.916212,2020.3.24
서울특별시동작구청,서울특별시 동작구 여의대방로 22카길 12 (신대방2동 358-6 은혜교회 뒤),,생활방범,3,,,,,02-820-2906,37.497724,126.925845,2020.3.24
서울특별시동작구청,"서울특별시 동작구 서울특별시 동작구 보라매로9길 38-1 (신대방2동 366-57,58 한전주)",,생활방범,1,,,,,02-820-2906,37.495038,126.925117,2020.3.24
서울특별시동작구청,서울특별시 동작구 서울특별시 동작구 보라매로7가길 6 (신대방2동 344-137 월드카센타) (전신주),,생활방범,1,,,,,02-820-2906,37.493847,126.926309,2020.3.24
서울특별시동작구청,서울특별시 동작구 국사봉2가길 15 (신대방2동 339-4 대성빌라옆) (한전주),,생활방범,1,,,,,02-820-2906,37.497508,126.929073,2020.3.24
서울특별시동작구청,서울특별시 동작구 보라매로17길 23 (신대방2동 360-146),,생활방범,3,,,,,02-820-2906,37.497321,126.926859,2020.3.24
서울특별시동작구청,서울특별시 동작구 사당로2가길 10-3 (상도1동 410 현대아파트 201동),,생활방범,3,,,,,02-820-2906,37.493351,126.961114,2020.3.24
서울특별시동작구청,서울특별시 동작구 상도로55길 16 (상도1동 484),,생활방범,3,,,,,02-820-2906,37.497876,126.955321,2020.3.24
서울특별시동작구청,서울특별시 동작구 상도로47가길9 (상도1동 359-1 새마을금고 부근)(한전주),,생활방범,1,,,,,02-820-2906,37.50031,126.951381,2020.3.24
서울특별시동작구청,서울특별시 동작구 상도로52길 4(상도동 469-5),,생활방범,3,,,,,02-820-2906,37.498092,126.951464,2020.3.24
서울특별시동작구청,서울특별시 동작구 현충로12길 106(흑석동 295),,생활방범,3,,,,,02-820-2906,37.503997,126.9682,2020.3.24
서울특별시동작구청,서울특별시 동작구 서달로4길 33(흑석동 79-132),,생활방범,3,,,,,02-820-2906,37.496179,126.938547,2020.3.24
서울특별시동작구청,서울특별시 동작구 흑석로6길 29 (흑석동 207-74) (한전주),,생활방범,1,,,,,02-820-2906,37.505459,126.956084,2020.3.24
서울특별시동작구청,서울특별시 동작구 서달로10나길 19 (흑석동 84-134 제일교회),,생활방범,1,,,,,02-820-2906,37.503404,126.962272,2020.3.24
서울특별시동작구청,서울특별시 동작구 동작대로3길 46 (사당1동 1034-46),,생활방범,3,,,,,02-820-2906,37.478834,126.979016,2020.3.24
서울특별시동작구청,서울특별시 동작구 동작대로15길 96 (사당1동 321-21),,생활방범,3,,,,,02-820-2906,37.482682,126.976209,2020.3.24
서울특별시동작구청,서울특별시 동작구 남부순환로255나길 9(사당1동 449-18),,생활방범,3,,,,,02-820-2906,37.47706,126.97157,2020.3.24
서울특별시동작구청,서울특별시 동작구 남부순환로271길 35 (사당1동 1032-50 완도수산)(한전주),,생활방범,1,,,,,02-820-2906,37.478328,126.98003,2020.3.24
서울특별시동작구청,서울특별시 동작구 동작대로41길22 (사당2동102-69),,생활방범,3,,,,,02-820-2906,37.496509,126.980595,2020.3.24
서울특별시동작구청,서울특별시 동작구 동작대로25길 16,,생활방범,3,,,,,02-820-2906,37.486286,126.981138,2020.3.24
서울특별시동작구청,서울특별시 동작구 동작대로31길 32(사당동 91-41),,생활방범,5,,,,,02-820-2906,37.489088,126.98055,2020.3.24
서울특별시동작구청,서울특별시 동작구 동작대로 33마길 39(사당2동 64-61)((한전주),,생활방범,1,,,,,02-820-2906,37.491017,126.977737,2020.3.24
서울특별시동작구청,서울특별시 동작구 사당로29다길 54(사당동 141-251),,생활방범,2,,,,,02-820-2906,37.486837,126.97713,2020.3.24
서울특별시동작구청,서울특별시 동작구 사당로23길 181 (사당3동 175-25 고은약국앞),,생활방범,3,,,,,02-820-2906,37.490157,126.970926,2020.3.24
서울특별시동작구청,서울특별시 동작구 사당로27길 247 (사당3동 178-1 성락빌라 앞),,생활방범,3,,,,,02-820-2906,37.492615,126.969257,2020.3.24
서울특별시동작구청,서울특별시 동작구 사당로13길 8 (사당3동 252-10),,생활방범,3,,,,,02-820-2906,37.484446,126.972755,2020.3.24
서울특별시동작구청,서울특별시 동작구 사당로20나길 114 (사당4동 304-4)(한전주),,생활방범,1,,,,,02-820-2906,37.478817,126.971481,2020.3.24
서울특별시동작구청,서울특별시 동작구 사당로16가길 12 (사당4동 265-57)(한전주),,생활방범,3,,,,,02-820-2906,37.482977,126.972734,2020.3.24
서울특별시동작구청,서울특별시 동작구 사당로16바길 16 (사당4동 296-32),,생활방범,1,,,,,02-820-2906,37.481357,126.971607,2020.3.24
서울특별시동작구청,서울특별시 동작구 사당로14가길 8(사당4동 254-11),,생활방범,1,,,,,02-820-2906,37.484012,126.971807,2020.3.24
서울특별시동작구청,서울특별시 동작구 사당로8가길 9-8,,생활방범,3,,,,,02-820-2906,37.484065,126.967635,2020.3.24
서울특별시동작구청,서울특별시 동작구 상도로49길 7 (상도1동 465-16),,생활방범,3,,,,,02-820-2906,37.499024,126.951945,2020.3.24
서울특별시동작구청,서울특별시 동작구 사당로8길 9 (사당5동 248 사당문화회관 사거리),,생활방범,3,,,,,02-820-2906,37.484575,126.969349,2020.3.24
서울특별시동작구청,서울특별시 동작구 노량진로14나길 24(노량진1동 119-35) 한빛독서실,,생활방범,3,,,,,02-820-2906,37.511769,126.943357,2020.3.24
서울특별시동작구청,서울특별시 동작구 노량진로32길 10(노량진1동 10-23) 본동현장민원실 뒤편,,생활방범,3,,,,,02-820-2906,37.512937,126.956204,2020.3.24
서울특별시동작구청,서울특별시 동작구 상도로34나길 9(상도2동 154-5),,생활방범,3,,,,,02-820-2906,37.504012,126.946007,2020.3.24
서울특별시동작구청,서울특별시 동작구 서달로10길 98(흑석동 74),,생활방범,3,,,,,02-820-2906,37.505197,126.968238,2020.3.24
서울특별시동작구청,서울특별시 동작구 남부순환로257가길 48(사당동 419-33),,생활방범,3,,,,,02-820-2906,37.480008,126.976487,2020.3.24
서울특별시동작구청,서울특별시 동작구 동작대로31길 46-6(사당동 91-38),,생활방범,4,,,,,02-820-2906,37.489448,126.979927,2020.3.24
서울특별시동작구청,서울특별시 동작구 동작대로길27길 5(사당2동 139-30 태평백화점 뒤),,생활방범,3,,,,,02-820-2906,37.487172,126.981628,2020.3.24
서울특별시동작구청,서울특별시 동작구 사당로16나길 22(사당4동 267-21),,생활방범,3,,,,,02-820-2906,37.483017,126.972059,2020.3.24
서울특별시동작구청,서울특별시 동작구 여의대방로 300,,생활방범,3,,,,,02-820-2906,37.513546,126.927093,2020.3.24
서울특별시동작구청,서울특별시 동작구 여의대방로22나길 23(신대방2동 367-83 문창중학교 통학로),,생활방범,3,,,,,02-820-2906,37.496799,126.921268,2020.3.24
서울특별시동작구청,서울특별시 동작구 흑석로3길 47,,생활방범,3,,,,,02-820-2906,37.50932,126.956989,2020.3.24
서울특별시동작구청,서울특별시 동작구 흑석로3길 60(흑석동 186-20),,생활방범,3,,,,,02-820-2906,37.509556,126.958052,2020.3.24
서울특별시동작구청,서울특별시 동작구 흑석로13길 27(흑석동 186-68),,생활방범,2,,,,,02-820-2906,37.509986,126.958867,2020.3.24
서울특별시동작구청,서울특별시 동작구 흑석로5길 92(흑석동 186-61),,생활방범,2,,,,,02-820-2906,37.509083,126.958717,2020.3.24
서울특별시동작구청,서울특별시 동작구 흑석로5길 73,,생활방범,2,,,,,02-820-2906,37.509057,126.957812,2020.3.24
서울특별시동작구청,서울특별시 동작구 흑석로9길 72(흑석동 198-17),,생활방범,4,,,,,02-820-2906,37.508609,126.956737,2020.3.24
서울특별시동작구청,서울특별시 동작구 흑석로13마길 12(흑석동 186-12),,생활방범,2,,,,,02-820-2906,37.509276,126.959515,2020.3.24
서울특별시동작구청,서울특별시 동작구 보라매로13길 13(신대방2동 344-74),,생활방범,3,,,,,02-820-2906,37.496169,126.926774,2020.3.24
서울특별시동작구청,서울특별시 동작구 장승배기로 20다길 10 정호아트빌라 삼거리(노량진1동 232-9),,생활방범,3,,,,,02-820-2906,37.509867,126.941307,2020.3.24
서울특별시동작구청,서울특별시 동작구 장승배기로26길 65(노량진1동 119-118),,생활방범,3,,,,,02-820-2906,37.511058,126.943087,2020.3.24
서울특별시동작구청,서울특별시 동작구 사당로16다길 57 제일아파트 앞 사거리(사당5동 240-15),,생활방범,3,,,,,02-820-2906,37.483324,126.969946,2020.3.24
서울특별시동작구청,서울특별시 동작구 신대방2가길 12(신대방1동 618-147),,생활방범,3,,,,,02-820-2906,37.488435,126.912668,2020.3.24
서울특별시동작구청,서울특별시 동작구 현충로22길 23(흑석동 227-20),,생활방범,3,,,,,02-820-2906,37.504369,126.970485,2020.3.24
서울특별시동작구청,서울특별시 동작구 노량진로16길 10(노량진1동 100-3),,생활방범,3,,,,,02-820-2906,37.513025,126.943763,2020.3.24
서울특별시동작구청,서울특별시 동작구 매봉로134 신동아APT앞(노량진1동 481),,생활방범,3,,,,,02-820-2906,37.510455,126.951117,2020.3.24
서울특별시동작구청,서울특별시 동작구 만양로13길 28(노량진1동 221-84),,생활방범,3,,,,,02-820-2906,37.509344,126.944765,2020.3.24
서울특별시동작구청,서울특별시 동작구 장승배기로16길 65(노량진2동 229-42),,생활방범,3,,,,,02-820-2906,37.507703,126.943031,2020.3.24
서울특별시동작구청,서울특별시 동작구 노량진로8나길 111(노량진2동 294-414),,생활방범,4,,,,,02-820-2906,37.507792,126.93603,2020.3.24
서울특별시동작구청,서울특별시 동작구 노량진로8다길 2(노량진2동 282-40),,생활방범,3,,,,,02-820-2906,37.510858,126.937069,2020.3.24
서울특별시동작구청,서울특별시 동작구 장승배기로9길 41(상도2동 184-150),,생활방범,3,,,,,02-820-2906,37.503084,126.937737,2020.3.24
서울특별시동작구청,서울특별시 동작구 상도로15길 104(상도2동 361-106),,생활방범,3,,,,,02-820-2906,37.504322,126.936017,2020.3.24
서울특별시동작구청,서울특별시 동작구 상도로34길 36(상도2동 156-11),,생활방범,3,,,,,02-820-2906,37.503191,126.944858,2020.3.24
서울특별시동작구청,서울특별시 동작구 국사봉10길 81-3(상도3동 301-70),,생활방범,3,,,,,02-820-2906,37.493222,126.932943,2020.3.24
서울특별시동작구청,서울특별시 동작구 상도로15다길 7-12(상도3동 331-67),,생활방범,3,,,,,02-820-2906,37.502316,126.932906,2020.3.24
서울특별시동작구청,서울특별시 동작구 성대로2길 11 상도3동주민센터(상도3동 315-37),,생활방범,3,,,,,02-820-2906,37.499189,126.93122,2020.3.24
서울특별시동작구청,서울특별시 동작구 상도로22나길 17(상도4동 193-63),,생활방범,3,,,,,02-820-2906,37.501751,126.936451,2020.3.24
서울특별시동작구청,서울특별시 동작구 성대로25길 10-8 구립샛별어린이집(상도4동 236-24),,생활방범,3,,,,,02-820-2906,37.499179,126.938968,2020.3.24
서울특별시동작구청,서울특별시 동작구 성대로10나길 6 성대경로당 인근(상도4동 269-13),,생활방범,3,,,,,02-820-2906,37.497119,126.934927,2020.3.24
서울특별시동작구청,서울특별시 동작구 대방동길 77 앞 삼거리(대방동 376-1),,생활방범,3,,,,,02-820-2906,37.505018,126.924775,2020.3.24
서울특별시동작구청,서울특별시 동작구 등용로8가길 11 골목길(대방동 13-50),,생활방범,3,,,,,02-820-2906,37.506328,126.934142,2020.3.24
서울특별시동작구청,서울특별시 동작구 여의대방로24사길 8 앞(대방동 404-15),,생활방범,3,,,,,02-820-2906,37.499062,126.925253,2020.3.24
서울특별시동작구청,서울특별시 동작구 서울특별시 동작구 신대방길 88 새마을금고앞(신대방1동 602-15),,생활방범,3,,,,,02-820-2906,37.489617,126.909452,2020.3.24
서울특별시동작구청,서울특별시 동작구 신대방16가길 18 향나무빌라앞(신대방1동 599-24),,생활방범,3,,,,,02-820-2906,37.490321,126.910814,2020.3.24
서울특별시동작구청,서울특별시 동작구 신대방18길 1 장시회관 앞(신대방1동 591-57),,생활방범,4,,,,,02-820-2906,37.490055,126.90881,2020.3.24
서울특별시동작구청,서울특별시 동작구 신대방14가길 23 대천교회 앞(신대방1동 631-4),,생활방범,3,,,,,02-820-2906,37.490071,126.912864,2020.3.24
서울특별시동작구청,서울특별시 동작구 여의대방로22길 44 보라매어린이집(신대방2동 364-18),,생활방범,3,,,,,02-820-2906,37.497688,126.922301,2020.3.24
서울특별시동작구청,서울특별시 동작구 보라매로9라길 10(신대방2동 344-165),,생활방범,3,,,,,02-820-2906,37.494671,126.925682,2020.3.24
서울특별시동작구청,서울특별시 동작구 여의대방로22길 78(신대방2동 361-55),,생활방범,3,,,,,02-820-2906,37.497733,126.923779,2020.3.24
서울특별시동작구청,서울특별시 동작구 상도로47바길41(상도동 54-34) 앞 삼거리 상도펠리스,,생활방범,3,,,,,02-820-2906,37.503736,126.953605,2020.3.24
서울특별시동작구청,서울특별시 동작구 상도로68길 10(상도동 498-3,,생활방범,3,,,,,02-820-2906,37.493657,126.955347,2020.3.24
서울특별시동작구청,서울특별시 동작구 상도로45길 81(상도1동 326-2),,생활방범,3,,,,,02-820-2906,37.50263,126.952966,2020.3.24
서울특별시동작구청,서울특별시 동작구 상도로61길 44(상도동 504-2),,생활방범,4,,,,,02-820-2906,37.494666,126.957619,2020.3.24
서울특별시동작구청,서울특별시 동작구 만양로2길 46(상도동 16-18) 오른쪽 전주,,생활방범,3,,,,,02-820-2906,37.506576,126.949675,2020.3.24
서울특별시동작구청,서울특별시 동작구 상도로13가길 6-2(상도동 328-1),,생활방범,3,,,,,02-820-2906,37.500503,126.931222,2020.3.24
서울특별시동작구청,서울특별시 동작구 성대로19길 23(상도동 244-369) 장안골든빌라앞삼거리,,생활방범,3,,,,,02-820-2906,37.499071,126.936423,2020.3.24
서울특별시동작구청,서울특별시 동작구 흑석로6길 16-1(흑석동 207-18) 사거리 전신주옆,,생활방범,4,,,,,02-820-2906,37.50574,126.956671,2020.3.24
서울특별시동작구청,서울특별시 동작구 서달로13길 11-1 연흥여인숙 골목,,생활방범,3,,,,,02-820-2906,37.508202,126.962202,2020.3.24
서울특별시동작구청,서울특별시 동작구 서달로10라길 17(흑석동 64-43),,생활방범,4,,,,,02-820-2906,37.503354,126.964189,2020.3.24
서울특별시동작구청,서울특별시 동작구 서달로4가길 19-2(흑석동 79-230),,생활방범,3,,,,,02-820-2906,37.506736,126.960103,2020.3.24
서울특별시동작구청,서울특별시 동작구 남부순환로271길 65(사당동 1033-14) 오거리,,생활방범,5,,,,,02-820-2906,37.479497,126.979406,2020.3.24
서울특별시동작구청,서울특별시 동작구 동작대로11길104(사당동 319-44)오거리,,생활방범,5,,,,,02-820-2906,37.481499,126.975679,2020.3.24
서울특별시동작구청,서울특별시 동작구 남부순환로269길 87(사당동 435-20),,생활방범,4,,,,,02-820-2906,37.479149,126.9749,2020.3.24
서울특별시동작구청,서울특별시 동작구 남부순환로271가길 7(사당동 1039-45),,생활방범,3,,,,,02-820-2906,37.477791,126.979548,2020.3.24
서울특별시동작구청,서울특별시 동작구 남부순환로267길 13(사당동 419-114),,생활방범,4,,,,,02-820-2906,37.477572,126.976136,2020.3.24
서울특별시동작구청,서울특별시 동작구 동작대로41길 7(동작동 102-60)하랑숲유치원,,생활방범,3,,,,,02-820-2906,37.495837,126.981921,2020.3.24
서울특별시동작구청,서울특별시 동작구 동작대로35가길 3(사당동 72-15),,생활방범,3,,,,,02-820-2906,37.490564,126.981049,2020.3.24
서울특별시동작구청,서울특별시 동작구 동작대로27라길 12(사당동 141-5),,생활방범,3,,,,,02-820-2906,37.486061,126.9795,2020.3.24
서울특별시동작구청,서울특별시 동작구 사당로27길 225(사당동178-48),,생활방범,3,,,,,02-820-2906,37.491784,126.970536,2020.3.24
서울특별시동작구청,서울특별시 동작구 사당로9가길 58 경남아그네스빌(사당동 209-16),,생활방범,3,,,,,02-820-2906,37.487375,126.968233,2020.3.24
서울특별시동작구청,서울특별시 동작구 사당로23길 278(사당동 180-1) 남묘주차장앞,,생활방범,3,,,,,02-820-2906,37.492846,126.967497,2020.3.24
서울특별시동작구청,서울특별시 동작구 사당로18길 9(사당동318-19)앞삼거리전신주옆,,생활방범,3,,,,,02-820-2906,37.482706,126.974581,2020.3.24
서울특별시동작구청,서울특별시 동작구 남부순환로257길 42 남성중학교,,생활방범,3,,,,,02-820-2906,37.478163,126.972464,2020.3.24
서울특별시동작구청,서울특별시 동작구 사당로16아길 59,,생활방범,4,,,,,02-820-2906,37.480995,126.968574,2020.3.24
서울특별시동작구청,서울특별시 동작구 사당로2길 40 장은해그린아파트,,생활방범,3,,,,,02-820-2906,37.491464,126.963371,2020.3.24
서울특별시동작구청,서울특별시 동작구 사당로10길 93(사당동 239-7),,생활방범,3,,,,,02-820-2906,37.482142,126.967531,2020.3.24
서울특별시동작구청,서울특별시 동작구 사당로2차길 15-9(사당동 202-2) ,,생활방범,4,,,,,02-820-2906,37.487781,126.965904,2020.3.24
서울특별시동작구청,서울특별시 동작구 여의대방로22가길 25-1(신대방2동 365-1),,생활방범,3,,,,,02-820-2906,37.496829,126.920797,2020.3.24
서울특별시동작구청,서울특별시 동작구 여의대방로22바길 36(신대방2동 360-81),,생활방범,3,,,,,02-820-2906,37.49628,126.923564,2020.3.24
서울특별시동작구청,서울특별시 동작구 만양로14아길 7(노량진1동 204-1),,생활방범,4,,,,,02-820-2906,37.511964,126.947494,2020.3.24
서울특별시동작구청,서울특별시 동작구 장승배기로21길18(노량진2동 305-16),,생활방범,4,,,,,02-820-2906,37.5090167,126.939125,2020.3.24
서울특별시동작구청,서울특별시 동작구 상도로22길 9(상도2동 184-171),,생활방범,4,,,,,02-820-2906,37.502951,126.936497,2020.3.24
서울특별시동작구청,서울특별시 동작구 국사봉10길 72-4(상도3동 301-55),,생활방범,4,,,,,02-820-2906,37.493412,126.932411,2020.3.24
서울특별시동작구청,서울특별시 동작구 성대로11가길 16(상도4동 264-241),,생활방범,4,,,,,02-820-2906,37.497827,126.936121,2020.3.24
서울특별시동작구청,서울특별시 동작구 흑석로9길 41(흑석동 199-6),,생활방범,4,,,,,02-820-2906,37.508005,126.958014,2020.3.24
서울특별시동작구청,서울특별시 동작구 현충로10길 56(흑석동 292),,생활방범,4,,,,,02-820-2906,37.504517,126.967404,2020.3.24
서울특별시동작구청,서울특별시 동작구 동작대로21길 16(사당1동 1006-12),,생활방범,5,,,,,02-820-2906,37.483805,126.980926,2020.3.24
서울특별시동작구청,서울특별시 동작구 동작대로9다길 23(사당1동 1025-14),,생활방범,5,,,,,02-820-2906,37.479556,126.977302,2020.3.24
서울특별시동작구청,서울특별시 동작구 남부순환로269길 27(사당1동 1046-25),,생활방범,4,,,,,02-820-2906,37.4778,126.977614,2020.3.24
서울특별시동작구청,서울특별시 동작구 동작대로29다길 7-5(사당2동 91-158),,생활방범,4,,,,,02-820-2906,37.488634,126.980217,2020.3.24
서울특별시동작구청,서울특별시 동작구 동작대로33바길 41(사당2동 59-4),,생활방범,4,,,,,02-820-2906,37.491923,126.977129,2020.3.24
서울특별시동작구청,서울특별시 동작구 사당로29가길 31-1(사당3동 141-66),,생활방범,4,,,,,02-820-2906,37.486484,126.9792,2020.3.24
서울특별시동작구청,서울특별시 동작구 사당로16길 30(사당동 274-24),,생활방범,4,,,,,02-820-2906,37.482242,126.972893,2020.3.24
서울특별시동작구청,서울특별시 동작구 사당로10가길 22(사당5동 241-42),,생활방범,3,,,,,02-820-2906,37.482603,126.967853,2020.3.24
서울특별시동작구청,서울특별시 동작구 보라매로15길 16(신대방2동 360-137),,생활방범,3,,,,,02-820-2906,37.497172,126.926814,2020.3.24
서울특별시동작구청,서울특별시 동작구 성대로6가길 71(상도3동 290-55),,생활방범,3,,,,,02-820-2906,37.49622,126.934164,2020.3.24
서울특별시동작구청,서울특별시 동작구 성대로16길 16(상도4동 264-151),,생활방범,4,,,,,02-820-2906,37.497497,126.936865,2020.3.24
서울특별시동작구청,서울특별시 동작구 노량진로14길 8(노량진동 58-1),,생활방범,4,,,,,02-820-2906,37.513063,126.942066,2020.3.24
서울특별시동작구청,서울특별시 동작구 노량진로8나길 15(노량진동 258-4),,생활방범,3,,,,,02-820-2906,37.511822,126.937035,2020.3.24
서울특별시동작구청,서울특별시 동작구 상도로47사길 4(상도동 53-8),,생활방범,4,,,,,02-820-2906,37.50329,126.95339,2020.3.24
서울특별시동작구청,서울특별시 동작구 상도로 162(상도동 185-1),,생활방범,4,,,,,02-820-2906,37.503677,126.93725,2020.3.24
서울특별시동작구청,서울특별시 동작구 상도로12길 5(상도동 324-23),,생활방범,4,,,,,02-820-2906,37.499398,126.929952,2020.3.24
서울특별시동작구청,서울특별시 동작구 서달로14나길 24-5(흑석동 54-161),,생활방범,4,,,,,02-820-2906,37.507259,126.962844,2020.3.24
서울특별시동작구청,서울특별시 동작구 남부순환로269길 48(사당동 419-121),,생활방범,5,,,,,02-820-2906,37.478254,126.976625,2020.3.24
서울특별시동작구청,서울특별시 동작구 동작대로27가길 45(사당동 147-75),,생활방범,4,,,,,02-820-2906,37.485534,126.981091,2020.3.24
서울특별시동작구청,서울특별시 동작구 사당로17나길 8(사당동 257-22),,생활방범,4,,,,,02-820-2906,37.484186,126.973154,2020.3.24
서울특별시동작구청,서울특별시 동작구 사당로16가길 56(사당동 249-38),,생활방범,5,,,,,02-820-2906,37.483839,126.970505,2020.3.24
서울특별시동작구청,서울특별시 동작구 사당로16다길 92(사당동 231-12),,생활방범,4,,,,,02-820-2906,37.484348,126.96853,2020.3.24
서울특별시동작구청,서울특별시 동작구 대방동길 15-1(대방동 391-549),,생활방범,4,,,,,02-820-2906,37.501014,126.927511,2020.3.24
서울특별시동작구청,서울특별시 동작구 성대로5길 12(상도동 251-8),,생활방범,4,,,,,02-820-2906,37.499673,126.933764,2020.3.24
서울특별시동작구청,서울특별시 동작구 신대방길 32(신대방동 617-9),,생활방범,4,,,,,02-820-2906,37.488065,126.91077,2020.3.24
서울특별시동작구청,서울특별시 동작구 장승배기로94(노량진동 310-150),,생활방범,4,,,,,02-820-2906,37.506076,126.940411,2020.3.24
서울특별시동작구청,서울특별시 동작구 장승배기로27길27(노량진동 242-11),,생활방범,4,,,,,02-820-2906,37.511219,126.939273,2020.3.24
서울특별시동작구청,서울특별시 동작구 상도로37길 7(상도1동 668),,생활방범,4,,,,,02-820-2906,37.502657,126.948749,2020.3.24
서울특별시동작구청,서울특별시 동작구 상도로13라길22(상도동 335-5),,생활방범,3,,,,,02-820-2906,37.502854,126.930206,2020.3.24
서울특별시동작구청,서울특별시 동작구 상도로15길54(상도동 357-15),,생활방범,4,,,,,02-820-2906,37.502821,126.93455,2020.3.24
서울특별시동작구청,서울특별시 동작구 성대로12길57(상도동 279-47),,생활방범,5,,,,,02-820-2906,37.49539,126.937463,2020.3.24
서울특별시동작구청,서울특별시 동작구 서달로13길5-30(흑석동 102-30),,생활방범,3,,,,,02-820-2906,37.507693,126.96169,2020.3.24
서울특별시동작구청,서울특별시 동작구 장승배기로17길 31(노량진동 315-13),,생활방범,4,,,,,02-820-2906,37.506475,126.938163,2020.3.24
서울특별시동작구청,서울특별시 동작구 남부순환로255길 7(사당동 1052-1),,생활방범,4,,,,,02-820-2906,37.476259,126.971123,2020.3.24
서울특별시동작구청,서울특별시 동작구 동작대로33가길 5(사당동 83-2),,생활방범,5,,,,,02-820-2906,37.489482,126.981733,2020.3.24
서울특별시동작구청,서울특별시 동작구 여의대방로26길54(대방동 411-29),,생활방범,4,,,,,02-820-2906,37.499218,126.923754,2020.3.24
서울특별시동작구청,서울특별시 동작구 신대방길62(신대방동 604-15),,생활방범,4,,,,,02-820-2906,37.488652,126.90967,2020.3.24
서울특별시동작구청,서울특별시 동작구 성대로 1길 26,,생활방범,4,,,,,02-820-2906,37.501576,126.934462,2020.3.24
서울특별시동작구청,서울특별시 동작구 성대로 21다길 34,,생활방범,3,,,,,02-820-2906,37.500714,126.934924,2020.3.24
서울특별시동작구청,서울특별시 동작구 성대로 17길 52(도화공원 인근),,생활방범,4,,,,,02-820-2906,37.500158,126.935159,2020.3.24
서울특별시동작구청,서울특별시 동작구 성대로 11길 22,,생활방범,4,,,,,02-820-2906,37.498462,126.934862,2020.3.24
서울특별시동작구청,서울특별시 동작구 성대로 37길 27,,생활방범,4,,,,,02-820-2906,37.500382,126.939761,2020.3.24
서울특별시동작구청,서울특별시 동작구 양녕로 25길 52-18,,생활방범,4,,,,,02-820-2906,37.496874,126.940733,2020.3.24
서울특별시동작구청,서울특별시 동작구 양녕로 25가길 23,,생활방범,4,,,,,02-820-2906,37.498886,126.942298,2020.3.24
서울특별시동작구청,서울특별시 동작구 양녕로 26길 68,,생활방범,5,,,,,02-820-2906,37.495547,126.943389,2020.3.24
서울특별시동작구청,서울특별시 동작구 성대로 29길 10,,생활방범,3,,,,,02-820-2906,37.499455,126.939855,2020.3.24
서울특별시동작구청,서울특별시 동작구 양녕로 22바길 37,,생활방범,4,,,,,02-820-2906,37.49659,126.94704,2020.3.24
서울특별시동작구청,서울특별시 동작구 장승배기로10가길 65(상도2동 175-29),,생활방범,4,,,,,02-820-2906,37.501938,126.941086,2020.3.24
서울특별시동작구청,서울특별시 동작구 흑석로11길 7(흑석동 188-14),,생활방범,4,,,,,02-820-2906,37.50795,126.960205,2020.3.24
서울특별시동작구청,서울특별시 동작구 신대방16길 35(신대방동 587-4),,생활방범,4,,,,,02-820-2906,37.491031,126.908983,2020.3.24
서울특별시동작구청,서울특별시 동작구 여의대방로22바길 15(신대방1동 360-83),,생활방범,4,,,,,02-820-2906,37.496828,126.923147,2020.3.24
서울특별시동작구청,서울특별시 동작구 만양로18길 27(노량진1동 148-53),,생활방범,3,,,,,02-820-2906,37.512963,126.945845,2020.3.24
서울특별시동작구청,서울특별시 동작구 노량진로10길 75(노량진2동 249-61),,생활방범,4,,,,,02-820-2906,37.509969,126.938013,2020.3.24
서울특별시동작구청,서울특별시 동작구 상도로 348(상도1동 475),,생활방범,5,,,,,02-820-2906,37.49729,126.952246,2020.3.24
서울특별시동작구청,서울특별시 동작구 상도로13길 2(상도3동 327-13),,생활방범,4,,,,,02-820-2906,37.499981,126.930574,2020.3.24
서울특별시동작구청,서울특별시 동작구 흑석로7길 25(흑석동 203-7),,생활방범,4,,,,,02-820-2906,37.507791,126.957456,2020.3.24
서울특별시동작구청,서울특별시 동작구 동작대로 9나길 17(사당1동 1034-11),,생활방범,4,,,,,02-820-2906,37.479316,126.978043,2020.3.24
서울특별시동작구청,서울특별시 동작구 동작대로33라길 14(사당2동 91-57,,생활방범,6,,,,,02-820-2906,37.489893,126.979508,2020.3.24
서울특별시동작구청,서울특별시 동작구 보라매로 110(대방동 406-8),,생활방범,4,,,,,02-820-2906,37.498858,126.928556,2020.3.24
서울특별시동작구청,서울특별시 동작구 신대방16가길 44(신대방1동 599-32),,생활방범,3,,,,,02-820-2906,37.490214,126.91194,2020.3.24
서울특별시동작구청,서울특별시 동작구 대림로 19(신대방1동 693-15),,생활방범,4,,,,,02-820-2906,37.487114,126.911346,2020.3.24
서울특별시동작구청,서울특별시 동작구 만양로16길 23(노량진동 119-168),,생활방범,3,,,,,02-820-2906,37.51202,126.944927,2020.3.24
서울특별시동작구청,서울특별시 동작구 양녕로23길 125(상도3동 279-451),,생활방범,5,,,,,02-820-2906,37.494877,126.936618,2020.3.24
서울특별시동작구청,서울특별시 동작구 성대로1길 16(상도4동 246-2),,생활방범,3,,,,,02-820-2906,37.501124,126.934185,2020.3.24
서울특별시동작구청,서울특별시 동작구 흑석로6길 50(흑석동 211-9),,생활방범,4,,,,,02-820-2906,37.505655,126.95534,2020.3.24
서울특별시동작구청,서울특별시 동작구 동작대로 129(사당2동 86-9),,생활방범,4,,,,,02-820-2906,37.488151,126.982041,2020.3.24
서울특별시동작구청,서울특별시 동작구 사당로25길 12(사당3동 156-18),,생활방범,3,,,,,02-820-2906,37.484672,126.977614,2020.3.24
서울특별시동작구청,서울특별시 동작구 여의대방로36길 25(대방동 383-1),,생활방범,5,,,,,02-820-2906,37.505568,126.924275,2020.3.24
서울특별시동작구청,서울특별시 동작구 등용로 10나길 26(대방동 44-121),,생활방범,3,,,,,02-820-2906,37.510772,126.934698,2020.3.24
서울특별시동작구청,서울특별시 동작구 여의대방로2길 31(신대방1동 492-182),,생활방범,3,,,,,02-820-2906,37.493633,126.913442,2020.3.24
서울특별시동작구청,서울특별시 동작구 상도로41가길 16(상도1동 659),,생활방범,3,,,,,02-820-2906,37.503346,126.950672,2020.3.24
서울특별시동작구청,서울특별시 동작구 장승배기로9다길 11(상도동 184-104),,생활방범,4,,,,,02-820-2906,37.502214,126.938419,2020.3.24
서울특별시동작구청,서울특별시 동작구 만양로16길 23(상도3동 335-99),,생활방범,2,,,,,02-820-2906,37.501278,126.929692,2020.3.24
서울특별시동작구청,서울특별시 동작구 국사봉1라길 4(상도3동 377-1),,생활방범,4,,,,,02-820-2906,37.494271,126.93555,2020.3.24
서울특별시동작구청,서울특별시 동작구 현충로14나길 10(흑석동 279-3),,생활방범,2,,,,,02-820-2906,37.504873,126.97008,2020.3.24
서울특별시동작구청,서울특별시 동작구 동작대로33바길 20(사당2동 64-85),,생활방범,2,,,,,02-820-2906,37.491586,126.977955,2020.3.24
서울특별시동작구청,서울특별시 동작구 사당로16길 156(사당4동 303-52),,생활방범,4,,,,,02-820-2906,37.477844,126.969411,2020.3.24
서울특별시동작구청,서울특별시 동작구 사당로10길 28(사당5동 245-1),,생활방범,3,,,,,02-820-2906,37.483996,126.969299,2020.3.24
서울특별시동작구청,서울특별시 동작구 대방동2길 43(대방동 392-19),,생활방범,3,,,,,02-820-2906,37.496839,126.936587,2020.3.24
서울특별시동작구청,서울특별시 동작구 성대로12가길 6(상도4동 279-17),,생활방범,4,,,,,02-820-2906,37.502729,126.926715,2020.3.24
서울특별시동작구청,서울특별시 동작구 여의대방로36길 79(대방동 15-46),,생활방범,3,,,,,02-820-2906,37.50071,126.949216,2020.3.24
서울특별시동작구청,서울특별시 동작구 상도로38길 3-42(상도동 159-305),,생활방범,3,,,,,02-820-2906,37.507312,126.929554,2020.3.24
서울특별시동작구청,서울특별시 동작구 노량진근린공원(대방동 23-176 ),,공원방범,5,,,,,02-820-2906,37.509762,126.928203,2020.3.24
서울특별시동작구청,서울특별시 동작구 노량진근린공원(대방동 23-181),,공원방범,2,,,,,02-820-2906,37.503605,126.930789,2020.3.24
서울특별시동작구청,서울특별시 동작구 사육신 역사공원(노량진1동 152-3),,공원방범,3,,,,,02-820-2906,37.51348,126.949172,2020.3.24
서울특별시동작구청,서울특별시 동작구 용봉정근린공원(흑석동 141-2 효사정),,공원방범,6,,,,,02-820-2906,37.510139,126.962997,2020.3.24
서울특별시동작구청,서울특별시 동작구 동작주차근린공원(사당2동 326),,공원방범,4,,,,,02-820-2906,37.502832,126.978479,2020.3.24
서울특별시동작구청,서울특별시 동작구 참새어린이공원(대방동 466-75),,공원방범,4,,,,,02-820-2906,37.498183,126.921951,2020.3.24
서울특별시동작구청,서울특별시 동작구 꿈돌이어린이공원(사당4동 300-26),,공원방범,1,,,,,02-820-2906,37.480192,126.969925,2020.3.24
서울특별시동작구청,서울특별시 동작구 별님어린이공원(상도4동 211-415),,공원방범,1,,,,,02-820-2906,37.498835,126.944981,2020.3.24
서울특별시동작구청,서울특별시 동작구 본동어린이공원(노량진1동 483),,공원방범,4,,,,,02-820-2906,37.510694,126.954264,2020.3.24
서울특별시동작구청,서울특별시 동작구 새벽어린이공원(상도3동 335-141),,공원방범,1,,,,,02-820-2906,37.500643,126.930222,2020.3.24
서울특별시동작구청,"서울특별시 동작구 은하수어린이공원(신대방1동 492-222, 714)",,공원방범,2,,,,,02-820-2906,37.494448,126.91249,2020.3.24
서울특별시동작구청,서울특별시 동작구 상도근린공원(상도4동 산65-150),,공원방범,1,,,,,02-820-2906,37.496129,126.939241,2020.3.24
서울특별시동작구청,서울특별시 동작구 현충근린공원(사당2동 산20-4),,공원방범,2,,,,,02-820-2906,37.496589,126.978767,2020.3.24
서울특별시동작구청,서울특별시 동작구 상도로68길 29(상도1동 126-18) 푸른솔아파트,,공원방범,4,,,,,02-820-2906,37.492122,126.955625,2020.3.24
서울특별시동작구청,서울특별시 동작구 절고개공원(상도1동 508),,공원방범,2,,,,,02-820-2906,37.506938,126.951721,2020.3.24
서울특별시동작구청,서울특별시 동작구 꿈나무어린이공원(상도2동 521-1),,공원방범,1,,,,,02-820-2906,37.503157,126.942867,2020.3.24
서울특별시동작구청,서울특별시 동작구 노루어린이공원(사당4동 316-23),,공원방범,2,,,,,02-820-2906,37.481829,126.973922,2020.3.24
서울특별시동작구청,서울특별시 동작구 상도근린공원(체육시설)(상도1동 산58),,공원방범,1,,,,,02-820-2906,37.493729,126.952993,2020.3.24
서울특별시동작구청,서울특별시 동작구 노량진근린공원(백로공원) 장승배기로19라길 51(상도2동 362-46),,공원방범,4,,,,,02-820-2906,37.506877,126.935259,2020.3.24
서울특별시동작구청,서울특별시 동작구 노량진근린공원(청소년회관)(상도3동 356-221),,공원방범,1,,,,,02-820-2906,37.503902,126.932515,2020.3.24
서울특별시동작구청,서울특별시 동작구 노량진근린공원(송학대공원)(노량진1동 325-2),,공원방범,4,,,,,02-820-2906,37.508747,126.943188,2020.3.24
서울특별시동작구청,서울특별시 동작구 노량진근린공원(고구동산 정자)(노량진1동 126-450)   ,,공원방범,1,,,,,02-820-2906,37.507588,126.95425,2020.3.24
서울특별시동작구청,서울특별시 동작구 노량진근린공원(고구동산 놀이터)(노량진1동 486),,공원방범,1,,,,,02-820-2906,37.509515,126.955397,2020.3.24
서울특별시동작구청,서울특별시 동작구 상도근린공원(상도3동 산80-31),,공원방범,2,,,,,02-820-2906,37.493161,126.935217,2020.3.24
서울특별시동작구청,서울특별시 동작구 까치산마을공원(사당5동 32-56),,공원방범,1,,,,,02-820-2906,37.485484,126.967198,2020.3.24
서울특별시동작구청,서울특별시 동작구 햇님어린이공원(상도1동 424),,공원방범,1,,,,,02-820-2906,37.501598,126.951054,2020.3.24
서울특별시동작구청,서울특별시 동작구 반달어린이공원(사당5동 233-12),,공원방범,1,,,,,02-820-2906,37.483475,126.967874,2020.3.24
서울특별시동작구청,서울특별시 동작구 제비어린이공원(대방동 362-11),,공원방범,1,,,,,02-820-2906,37.50658,126.925766,2020.3.24
서울특별시동작구청,서울특별시 동작구 산새어린이공원(흑석동 293-4),,공원방범,1,,,,,02-820-2906,37.503954,126.967973,2020.3.24
서울특별시동작구청,서울특별시 동작구 까치어린이공원(사당1동 1028-1),,공원방범,3,,,,,02-820-2906,37.480565,126.980006,2020.3.24
서울특별시동작구청,서울특별시 동작구 삼일공원(사당3동 산24-17),,공원방범,3,,,,,02-820-2906,37.485543,126.97493,2020.3.24
서울특별시동작구청,서울특별시 동작구 상도소공원(상도2동 529-1),,공원방범,1,,,,,02-820-2906,37.504794,126.943821,2020.3.24
서울특별시동작구청,서울특별시 동작구 상도동중앙 쌈지공원(상도1동 415-1),,공원방범,6,,,,,02-820-2906,37.500072,126.949559,2020.3.24
서울특별시동작구청,서울특별시 동작구 패밀리공원(상도3동 259-116),,공원방범,1,,,,,02-820-2906,37.496979,126.933958,2020.3.24
서울특별시동작구청,서울특별시 동작구 양지공원(사당3동 220-6),,공원방범,2,,,,,02-820-2906,37.486845,126.969743,2020.3.24
서울특별시동작구청,서울특별시 동작구 은하수어린이공원(신대방1동 492-222),,공원방범,1,,,,,02-820-2906,37.494121,126.91305,2020.3.24
서울특별시동작구청,서울특별시 동작구 상도근린공원(상도4동 산65-149),,공원방범,1,,,,,02-820-2906,37.495444,126.940759,2020.3.24
서울특별시동작구청,서울특별시 동작구 상도근린공원(상도4동 산65-235),,공원방범,1,,,,,02-820-2906,37.492494,126.943075,2020.3.24
서울특별시동작구청,서울특별시 동작구 까치산근린공원(사당5동 205-18),,공원방범,1,,,,,02-820-2906,37.485934,126.964387,2020.3.24
서울특별시동작구청,서울특별시 동작구 까망돌어린이공원(흑석동 335-10),,공원방범,1,,,,,02-820-2906,37.506651,126.964084,2020.3.24
서울특별시동작구청,서울특별시 동작구 늘푸른어린이공원(사당5동 산32-76),,공원방범,1,,,,,02-820-2906,37.482204,126.969545,2020.3.24
서울특별시동작구청,서울특별시 동작구 토끼어린이공원(사당4동 1000-13),,공원방범,1,,,,,02-820-2906,37.478152,126.970144,2020.3.24
서울특별시동작구청,서울특별시 동작구 새싹어린이공원(사당4동 316-33),,공원방범,1,,,,,02-820-2906,37.480051,126.973159,2020.3.24
서울특별시동작구청,서울특별시 동작구 양지어린이공원(사당1동 316-37),,공원방범,1,,,,,02-820-2906,37.479996,126.974022,2020.3.24
서울특별시동작구청,서울특별시 동작구 사당만남의광장(사당1동 1043-14),,공원방범,3,,,,,02-820-2906,37.476951,126.980634,2020.3.24
서울특별시동작구청,서울특별시 동작구 해밀어린이공원(사당3동 1157-1),,공원방범,2,,,,,02-820-2906,37.488404,126.97428,2020.3.24
서울특별시동작구청,서울특별시 동작구 희망어린이공원(사당2동 333-3),,공원방범,3,,,,,02-820-2906,37.49387,126.980199,2020.3.24
서울특별시동작구청,서울특별시 동작구 빙수골소공원(상도3동 296-6),,공원방범,2,,,,,02-820-2906,37.496645,126.932071,2020.3.24
서울특별시동작구청,서울특별시 동작구 꽃담길(상도2동 25-8) 꽃담소길공원,,공원방범,2,,,,,02-820-2906,37.50547,126.941989,2020.3.24
서울특별시동작구청,서울특별시 동작구 개나리어린이공원(새주소 없음.(사당5동 1138-1)),,공원방범,2,,,,,02-820-2906,37.486202,126.965725,2020.3.24
서울특별시동작구청,서울특별시 동작구 꿈동산어린이공원(새주소 없음.(상도1동 426)),,공원방범,2,,,,,02-820-2906,37.503298,126.954376,2020.3.24
서울특별시동작구청,서울특별시 동작구 샛별어린이공원(새주소없음.(사당5동 1144)),,공원방범,2,,,,,02-820-2906,37.487415,126.965383,2020.3.24
서울특별시동작구청,서울특별시 동작구 옹달샘어린이공원(새주소 없음.(상도3동 299-193)),,공원방범,2,,,,,02-820-2906,37.495177,126.929625,2020.3.24
서울특별시동작구청,서울특별시 동작구 노량진근린공원(노량진2동 314-95),,공원방범,1,,,,,02-820-2906,37.506493,126.937574,2020.3.24
서울특별시동작구청,서울특별시 동작구 꿈나래어린이공원(상도2동 16-18),,공원방범,1,,,,,02-820-2906,37.506531,126.949769,2020.3.24
서울특별시동작구청,서울특별시 동작구 꿈나래어린이공원(상도2동 16-18),,공원방범,1,,,,,02-820-2906,37.506467,126.949816,2020.3.24
서울특별시동작구청,서울특별시 동작구 새빛소공원(사당3동 164-52),,공원방범,1,,,,,02-820-2906,37.487257,126.974419,2020.3.24
서울특별시동작구청,서울특별시 동작구 비둘기공원(상도1동 558) ,,공원방범,3,,,,,02-820-2906,37.506002,126.951703,2020.3.24
서울특별시동작구청,서울특별시 동작구 노량진로26길 16-40 (노량진1동 50-8) 본동초,,어린이보호,1,,,,,02-820-2906,37.51011,126.95325,2020.3.24
서울특별시동작구청,서울특별시 동작구 사당로23나길 27(사당3동 105-23) 삼일초,,어린이보호,1,,,,,02-820-2906,37.4878,126.97528,2020.3.24
서울특별시동작구청,서울특별시 동작구 만양로12가길 69(노량진1동 441-11) 영본초,,어린이보호,1,,,,,02-820-2906,37.51118,126.94845,2020.3.24
서울특별시동작구청,서울특별시 동작구 현충로 87(흑석동 7-1) 흑석초,,어린이보호,1,,,,,02-820-2906,37.50871,126.96404,2020.3.24
서울특별시동작구청,서울특별시 동작구 알마타길 16(대방동 351-6) 신길초,,어린이보호,1,,,,,02-820-2906,37.50985,126.92652,2020.3.24
서울특별시동작구청,서울특별시 동작구 서달로 135(흑석동 233-2) 중대부속초,,어린이보호,1,,,,,02-820-2906,37.50582,126.96111,2020.3.24
서울특별시동작구청,서울특별시 동작구 동작대로29길 214(사당2동 산 9-1) 동작초,,어린이보호,1,,,,,02-820-2906,37.49304,126.97579,2020.3.24
서울특별시동작구청,서울특별시 동작구 등용로8길 3(대방동 44-3) 영화초,,어린이보호,1,,,,,02-820-2906,37.50847,126.93271,2020.3.24
서울특별시동작구청,서울특별시 동작구 사당로 146(사당5동 199-1) 신남성초 후문,,어린이보호,1,,,,,02-820-2906,37.4886,126.96466,2020.3.24
서울특별시동작구청,서울특별시 동작구 성대로17길 52(상도4동 244-183) 상도초(도화공원내),,어린이보호,4,,,,,02-820-2906,37.4995,126.93518,2020.3.24
서울특별시동작구청,서울특별시 동작구 강남초등길 15(상도1동 501-1) 강남초,,어린이보호,1,,,,,02-820-2906,37.50597,126.9522,2020.3.24
서울특별시동작구청,서울특별시 동작구 장승배기로10길 130,,어린이보호,5,,,,,02-820-2906,37.50071,126.9451,2020.3.24
서울특별시동작구청,서울특별시 동작구 성대로29길 79(상도4동 238) 상도초등학교 앞 교차로,,어린이보호,4,,,,,02-820-2906,37.50116,126.93692,2020.3.24
서울특별시동작구청,서울특별시 동작구 상도로 59,,어린이보호,4,,,,,02-820-2906,37.5002,126.92668,2020.3.24
서울특별시동작구청,서울특별시 동작구 여의대방로16길 30(신대방2동 488-1) 보라매초등학교 정문 앞,,어린이보호,4,,,,,02-820-2906,37.49537,126.91649,2020.3.24
서울특별시동작구청,서울특별시 동작구 동작대로13길 22(사당1동 1011-1) 남사초등학교 정문 앞 교차로,,어린이보호,4,,,,,02-820-2906,37.4818,126.97953,2020.3.24
서울특별시동작구청,서울특별시 동작구 사당로23길 60,,어린이보호,3,,,,,02-820-2906,37.48588,126.9753,2020.3.24
서울특별시동작구청,서울특별시 동작구 솔밭로 47(사당5동 산 32-87)행림초등학교 정문옆 동작고등학교 정문 앞 신호등 지점,,어린이보호,3,,,,,02-820-2906,37.48111,126.96585,2020.3.24
서울특별시동작구청,서울특별시 동작구 장승배기로 146(노량진1동 236-13)노량진초등하교 후문 앞,,어린이보호,4,,,,,02-820-2906,37.51049,126.94039,2020.3.24
서울특별시동작구청,서울특별시 동작구 흑석로 12(상도1동 489-2)앞 교차로 강남초,,어린이보호,4,,,,,02-820-2906,37.5048,126.95201,2020.3.24
서울특별시동작구청,서울특별시 동작구 장승배기로26길 17,,어린이보호,4,,,,,02-820-2906,37.51187,126.94145,2020.3.24
서울특별시동작구청,서울특별시 동작구 신대방2길 12,,어린이보호,3,,,,,02-820-2906,37.488,126.91316,2020.3.24
서울특별시동작구청,서울특별시 동작구 장승배기로 164,,어린이보호,2,,,,,02-820-2906,37.5111,126.95409,2020.3.24
서울특별시동작구청,서울특별시 동작구 사당로23길 112,,어린이보호,4,,,,,02-820-2906,37.48745,126.97505,2020.3.24
서울특별시동작구청,서울특별시 동작구 성대로21길 59,,어린이보호,2,,,,,02-820-2906,37.50051,126.93667,2020.3.24
서울특별시동작구청,서울특별시 동작구 여의대방로46길 28,,어린이보호,4,,,,,02-820-2906,37.51084,126.92588,2020.3.24
서울특별시동작구청,서울특별시 동작구 사당로2가길 133,,어린이보호,3,,,,,02-820-2906,37.4885,126.96374,2020.3.24
서울특별시동작구청,서울특별시 동작구 만양로12가길 60,,어린이보호,3,,,,,02-820-2906,37.5096,126.94883,2020.3.24
서울특별시동작구청,서울특별시 동작구 서달로 167(흑석동 102-1) 앞 교차로 흑석초,,어린이보호,3,,,,,02-820-2906,37.50803,126.96289,2020.3.24
서울특별시동작구청,서울특별시 동작구 양녕로 28길 25(상도4동 212-129) 서울삼성학교,,어린이보호,4,,,,,02-820-2906,37.49842,126.94507,2020.3.24
서울특별시동작구청,서울특별시 동작구 장승배기로20길 20(노량진2동 225-36),,어린이보호,4,,,,,02-820-2906,37.50896,126.94113,2020.3.24
서울특별시동작구청,서울특별시 동작구 성대로6길 10 앞 교차로 벧엘유치원,,어린이보호,3,,,,,02-820-2906,37.49894,126.93265,2020.3.24
서울특별시동작구청,서울특별시 동작구 보라매로 19길 16-1(신대방2동 349-25) 앞 애광유치원 아니고 정현유치원,,어린이보호,3,,,,,02-820-2906,37.49782,126.92711,2020.3.24
서울특별시동작구청,서울특별시 동작구 사당로23길 112 정현유치원 아니고 구립사당어린이집,,어린이보호,3,,,,,02-820-2906,37.48984,126.97217,2020.3.24
서울특별시동작구청,서울특별시 동작구 성대로6가길 152 앞 사랑유치원,,어린이보호,3,,,,,02-820-2906,37.49374,126.93621,2020.3.24
서울특별시동작구청,서울특별시 동작구 여의대방로36길 13 앞 양지어린이집,,어린이보호,4,,,,,02-820-2906,37.50473,126.92326,2020.3.24
서울특별시동작구청,서울특별시 동작구 서달로2길 29 연꽃어린이집,,어린이보호,4,,,,,02-820-2906,37.50165,126.96363,2020.3.24
서울특별시동작구청,서울특별시 동작구 양녕로36길 17(상도1동 159-221),,어린이보호,3,,,,,02-820-2906,37.50226,126.94654,2020.3.24
서울특별시동작구청,서울특별시 동작구 상도로58길 16 서울어린이집,,어린이보호,3,,,,,02-820-2906,37.49521,126.95232,2020.3.24
서울특별시동작구청,서울특별시 동작구 여의대방로24가길 22 상도어린이집,,어린이보호,4,,,,,02-820-2906,37.49927,126.92097,2020.3.24
서울특별시동작구청,서울특별시 동작구 여의대방로10길 59 보라매파크빌 후문앞 보도 보라매초,,어린이보호,4,,,,,02-820-2906,37.49537,126.91649,2020.3.24
서울특별시동작구청,서울특별시 동작구 등용로 86 영화초,,어린이보호,4,,,,,02-820-2906,37.50887,126.93229,2020.3.24
서울특별시동작구청,서울특별시 동작구 만양로 26 (건영아파트상가 현대부동산앞 보도) 영본초,,어린이보호,5,,,,,02-820-2906,37.50711,126.94816,2020.3.24
서울특별시동작구청,서울특별시 동작구 장승배기로 13 신상도초,,어린이보호,4,,,,,02-820-2906,37.49972,126.94293,2020.3.24
서울특별시동작구청,서울특별시 동작구 흑석로 27 건너편 강남초,,어린이보호,4,,,,,02-820-2906,37.50505,126.95381,2020.3.24
서울특별시동작구청,서울특별시 동작구 사당로23길 112 건너편 남성초,,어린이보호,4,,,,,02-820-2906,37.48702,126.974,2020.3.24
서울특별시동작구청,서울특별시 동작구 동작대로39가길 83 동작초등학교 곡각 동작초,,어린이보호,4,,,,,02-820-2906,37.49464,126.97829,2020.3.24
서울특별시동작구청,서울특별시 동작구 서달로 83 (우리유앤미아파트102동  관리사무소 담장) 은로초,,어린이보호,4,,,,,02-820-2906,37.50112,126.96022,2020.3.24
서울특별시동작구청,서울특별시 동작구 서달로 153 중대부속초,,어린이보호,4,,,,,02-820-2906,37.50738,126.96166,2020.3.24
서울특별시동작구청,서울특별시 동작구 사당로10길 102 맞은편 도로변 보도 행림초,,어린이보호,4,,,,,02-820-2906,37.48201,126.96671,2020.3.24
서울특별시동작구청,서울특별시 동작구 사당로16마길 73 행림초,,어린이보호,3,,,,,02-820-2906,37.48268,126.96836,2020.3.24
서울특별시동작구청,서울특별시 동작구 흑석로 115-3 장수불고기앞 보도 흑석초,,어린이보호,5,,,,,02-820-2906,37.50883,126.96161,2020.3.24
서울특별시동작구청,서울특별시 동작구 상도로58길 4 상현초,,어린이보호,5,,,,,02-820-2906,37.49577,126.95301,2020.3.24
서울특별시동작구청,서울특별시 동작구 만양로13가길 34-1 동아유치원,,어린이보호,3,,,,,02-820-2906,37.5084,126.94379,2020.3.24
서울특별시동작구청,서울특별시 동작구 장승배기로16길 115(노량진2동 225-158),,어린이보호,4,,,,,02-820-2906,37.50981,126.94282,2020.3.24
서울특별시동작구청,서울특별시 동작구 양녕로26길 11 상아유치원,,어린이보호,4,,,,,02-820-2906,37.49751,126.9441,2020.3.24
서울특별시동작구청,서울특별시 동작구 성대로21길 16 승혜유치원,,어린이보호,4,,,,,02-820-2906,37.49876,126.93719,2020.3.24
서울특별시동작구청,서울특별시 동작구 신대방11길 32 양문유치원,,어린이보호,5,,,,,02-820-2906,37.48859,126.90777,2020.3.24
서울특별시동작구청,서울특별시 동작구 여의대방로44길 49 (대방주공 2단지아파트 207동 앞 보도) 열림유치원,,어린이보호,3,,,,,02-820-2906,37.50931,126.92825,2020.3.24
서울특별시동작구청,서울특별시 동작구 여의대방로 56-9(보라매롯데낙천대아파트 107동 관리사무소 맞은편) 요요유치원,,어린이보호,3,,,,,02-820-2906,37.49551,126.91282,2020.3.24
서울특별시동작구청,서울특별시 동작구 장승배기로5길 18 성모유치원,,어린이보호,3,,,,,02-820-2906,37.5012,126.93997,2020.3.24
서울특별시동작구청,서울특별시 동작구 양녕로25길 71 행복유치원,,어린이보호,4,,,,,02-820-2906,37.49612,126.94075,2020.3.24
서울특별시동작구청,서울특별시 동작구 흑석로 47 중대부속유치원,,어린이보호,3,,,,,02-820-2906,37.5063,126.95514,2020.3.24
서울특별시동작구청,서울특별시 동작구 상도로41가길 15 강남유치원,,어린이보호,5,,,,,02-820-2906,37.50406,126.95026,2020.3.24
서울특별시동작구청,서울특별시 동작구 국사봉1길 235-1 연꽃어린이집,,어린이보호,3,,,,,02-820-2906,37.49321,126.93579,2020.3.24
서울특별시동작구청,서울특별시 동작구 여의대방로24길 113 은하어린이집,,어린이보호,4,,,,,02-820-2906,37.49921,126.92657,2020.3.24
서울특별시동작구청,서울특별시 동작구 매봉로2길 1 예담어린이집,,어린이보호,4,,,,,02-820-2906,37.50721,126.95188,2020.3.24
서울특별시동작구청,서울특별시 동작구 동작대로17길 37 참사랑어린이집,,어린이보호,4,,,,,02-820-2906,37.4829,126.9776,2020.3.24
서울특별시동작구청,서울특별시 동작구 사당로4길 46(흑석동 252-45) 맞은편 흑석어린이집,,어린이보호,4,,,,,02-820-2906,37.49987,126.96193,2020.3.24
서울특별시동작구청,서울특별시 동작구 사당로13길 31두산위브트레지움 102동 앞 문화어린이집,,어린이보호,4,,,,,02-820-2906,37.48507,126.97234,2020.3.24
서울특별시동작구청,서울특별시 동작구 상도로50길 36-1(샛별유치원),,어린이보호,2,,,,,02-820-2906,37.49787,126.95028,2020.3.24
서울특별시동작구청,서울특별시 동작구 서달로12길 89-19(큰별어린이집),,어린이보호,3,,,,,02-820-2906,37.50434,126.96525,2020.3.24
서울특별시동작구청,서울특별시 동작구 사당로8나길 1(사당5동 233-11) 우리어린이집 ,,어린이보호,3,,,,,02-820-2906,37.48395,126.9684,2020.3.24
서울특별시동작구청,서울특별시 동작구 양녕로20길 112,,어린이보호,3,,,,,02-820-2906,37.49711,126.9451,2020.3.24
서울특별시동작구청,서울특별시 동작구 성대로10길 27,,어린이보호,3,,,,,02-820-2906,37.49666,126.93526,2020.3.24
서울특별시동작구청,서울특별시 동작구 동작대로35아길 32,,어린이보호,4,,,,,02-820-2906,37.49353,126.97809,2020.3.24
서울특별시동작구청,서울특별시 동작구 상도로 47길 108 (상도1동 486),,어린이보호,3,,,,,02-820-2906,37.50402,126.95177,2020.3.24
서울특별시동작구청,서울특별시 동작구 장승배기로 160(노량진1동 51) 노량진초 정문,,어린이보호,3,,,,,02-820-2906,37.51186,126.94026,2020.3.24
서울특별시동작구청,서울특별시 동작구 여의대방로 256(대방동 500) 성원아파트 102동 앞,,어린이보호,3,,,,,02-820-2906,37.50874,126.92528,2020.3.24
서울특별시동작구청,서울특별시 동작구 알마타길 29(대방동 349-3),,어린이보호,3,,,,,02-820-2906,37.51118,126.92836,2020.3.24
서울특별시동작구청,서울특별시 동작구 장승배기로 4(상도2동 207-5),,어린이보호,4,,,,,02-820-2906,37.49913,126.94387,2020.3.24
서울특별시동작구청,서울특별시 동작구 서달로 112(흑석동 86-188),,어린이보호,3,,,,,02-820-2906,37.50363,126.96092,2020.3.24
서울특별시동작구청,서울특별시 동작구 사당로 138(사당5동 200-8),,어린이보호,3,,,,,02-820-2906,37.48839,126.96612,2020.3.24
서울특별시동작구청,서울특별시 동작구 상도로50길 33(상도1동 470-8) ※주정차-27번 지주대공용,,어린이보호,3,,,,,02-820-2906,37.49724,126.95031,2020.3.24
서울특별시동작구청,서울특별시 동작구 성대로12길 1(상도4동 263-8),,어린이보호,4,,,,,02-820-2906,37.4976,126.93523,2020.3.24
서울특별시동작구청,서울특별시 동작구 서달로2길 2(흑석동 257-62),,어린이보호,3,,,,,02-820-2906,37.49971,126.96076,2020.3.24
서울특별시동작구청,서울특별시 동작구 흑석한강로 11(흑석동 335-2)  ※주정차-22번 지주대공용,,어린이보호,3,,,,,02-820-2906,37.50557,126.96624,2020.3.24
서울특별시동작구청,서울특별시 동작구 동작대로17길 20(사당1동 1004-45),,어린이보호,4,,,,,02-820-2906,37.48276,126.97952,2020.3.24
서울특별시동작구청,서울특별시 동작구 여의대방로36길 79(대방동 15-46),,어린이보호,3,,,,,02-820-2906,37.50781,126.93024,2020.3.24
서울특별시동작구청,서울특별시 동작구 강남초등길 7(강남초교병설유치원),,어린이보호,4,,,,,02-820-2906,37.50647,126.95212,2020.3.24
서울특별시동작구청,서울특별시 동작구 사당로17길 49(남성초교병설유치원),,어린이보호,4,,,,,02-820-2906,37.4854,126.97315,2020.3.24
서울특별시동작구청,서울특별시 동작구 신대방2길 42(문창초교병설유치원),,어린이보호,5,,,,,02-820-2906,37.48881,126.91243,2020.3.24
서울특별시동작구청,서울특별시 동작구 성대로 21길 2(상도동 244-291) 상도초등학교,,어린이보호,5,,,,,02-820-2906,37.49814,126.93732,2020.3.24
서울특별시동작구청,서울특별시 동작구 동작대로41길 2(동작동 102-35) 하랑숲유치원,,어린이보호,3,,,,,02-820-2906,37.49551,126.98248,2020.3.24
서울특별시동작구청,서울특별시 동작구 여의대방로 46길 성원아파트 앞,,어린이보호,4,,,,,02-820-2906,37.51092,126.92659,2020.3.24
서울특별시동작구청,서울특별시 동작구 대방동길 3 대림초등학교,,어린이보호,3,,,,,02-820-2906,37.50019,126.92771,2020.3.24
서울특별시동작구청,서울특별시 동작구 양녕로170 노벨어린이집,,어린이보호,4,,,,,02-820-2906,37.49721,126.94395,2020.3.24
서울특별시동작구청,서울특별시 동작구 상도로56길 15 흐리목소공원 앞 상현초등학교,,어린이보호,3,,,,,02-820-2906,37.49547,126.95194,2020.3.24
서울특별시동작구청,서울특별시 동작구 양녕로 30길 24 삼성특수학교,,어린이보호,4,,,,,02-820-2906,37.49931,126.94552,2020.3.24
서울특별시동작구청,서울특별시 동작구 만양로 19 신동아리버파크 앞,,어린이보호,4,,,,,02-820-2906,37.50591,126.9412,2020.3.24
서울특별시동작구청,서울특별시 동작구 만양로 8길 50,,어린이보호,3,,,,,02-820-2906,37.50813,126.94824,2020.3.24
서울특별시동작구청,서울특별시 동작구 등용로 66 앞 영화초등학교,,어린이보호,4,,,,,02-820-2906,37.50697,126.9323,2020.3.24
서울특별시동작구청,서울특별시 동작구 매봉로 134 LIG건영아파트 105동 앞 영본초등학교,,어린이보호,4,,,,,02-820-2906,37.50919,126.95076,2020.3.24
서울특별시동작구청,서울특별시 동작구 장승배기로4길(더샵 1차 105동 앞),,어린이보호,3,,,,,02-820-2906,37.501019,126.943881,2020.3.24
서울특별시동작구청,서울특별시 동작구 사당로23나길 27(사당3동 105-22 ),,어린이보호,4,,,,,02-820-2906,37.48819,126.975792,2020.3.24
서울특별시동작구청,서울특별시 동작구 양녕로29길 39(상도4동 203-19),,그린파킹,2,,,,,02-820-2906,37.49983,126.94203,2020.3.24
서울특별시동작구청,서울특별시 동작구 양녕로29길 22(상도4동 203-29),,그린파킹,1,,,,,02-820-2906,37.4995,126.94282,2020.3.24
서울특별시동작구청,서울특별시 동작구 양녕로26가길 4(상도4동 211-15),,그린파킹,1,,,,,02-820-2906,37.4979,126.94431,2020.3.24
서울특별시동작구청,서울특별시 동작구 양녕로26가길 4-7(상도4동 211-13),,그린파킹,1,,,,,02-820-2906,37.4977,126.94503,2020.3.24
서울특별시동작구청,서울특별시 동작구 양녕로22가길 60(상도4동 214-322),,그린파킹,1,,,,,02-820-2906,37.4977,126.94503,2020.3.24
서울특별시동작구청,서울특별시 동작구 양녕로20길 82(상도4동 214-87),,그린파킹,1,,,,,02-820-2906,37.49588,126.94459,2020.3.24
서울특별시동작구청,서울특별시 동작구 양녕로22길 21 (상도4동 214-71),,그린파킹,1,,,,,02-820-2906,37.49419,126.94404,2020.3.24
서울특별시동작구청,서울특별시 동작구 양녕로22다길 1 (상도4동 214-185),,그린파킹,1,,,,,02-820-2906,37.49561,126.94529,2020.3.24
서울특별시동작구청,서울특별시 동작구 양녕로22길 77 (상도4동 214-402),,그린파킹,1,,,,,02-820-2906,37.49508,126.94577,2020.3.24
서울특별시동작구청,서울특별시 동작구 양녕로26나길 41(상도4동 214-363),,그린파킹,1,,,,,02-820-2906,37.49669,126.94631,2020.3.24
서울특별시동작구청,서울특별시 동작구 양녕로26나길 49(상도4동 214-412),,그린파킹,1,,,,,02-820-2906,37.49638,126.9465,2020.3.24
서울특별시동작구청,서울특별시 동작구 양녕로 22바길 26(상도4동 214-299),,그린파킹,1,,,,,02-820-2906,37.49601,126.94675,2020.3.24
서울특별시동작구청,서울특별시 동작구 신대방1나길 46 (신대방1동 686-23),,그린파킹,4,,,,,02-820-2906,37.48606,126.90677,2020.3.24
서울특별시동작구청,서울특별시 동작구 신대방1나길 54(신대방1동 686-50),,그린파킹,4,,,,,02-820-2906,37.48598,126.90624,2020.3.24
서울특별시동작구청,서울특별시 동작구 신대방13길 33(신대방1동 689-16),,그린파킹,1,,,,,02-820-2906,37.48822,126.9089,2020.3.24
서울특별시동작구청,서울특별시 동작구 국사봉길 71(상도3동 298-13),,그린파킹,1,,,,,02-820-2906,37.49662,126.93079,2020.3.24
서울특별시동작구청,서울특별시 동작구 국사봉8길 21(상도3동 299-83) ,,그린파킹,1,,,,,02-820-2906,37.49579,126.93036,2020.3.24
서울특별시동작구청,서울특별시 동작구 국사봉10길 32-1(상도3동 299-126) ,,그린파킹,1,,,,,02-820-2906,37.49468,126.93133,2020.3.24
서울특별시동작구청,서울특별시 동작구 국사봉길 87(상도3동 294-15),,그린파킹,1,,,,,02-820-2906,37.49605,126.93127,2020.3.24
서울특별시동작구청,서울특별시 동작구 국사봉길 98(상도3동 299-14),,그린파킹,1,,,,,02-820-2906,37.49572,126.93159,2020.3.24
서울특별시동작구청,서울특별시 동작구 국사봉12길 11(상도3동 299-16),,그린파킹,1,,,,,02-820-2906,37.49546,126.9319,2020.3.24
서울특별시동작구청,서울특별시 동작구 국사봉1가길 15(상도3동 288-12),,그린파킹,1,,,,,02-820-2906,37.49507,126.93322,2020.3.24
서울특별시동작구청,서울특별시 동작구 동작대로19길 39(사당1동 1004-40),,그린파킹,4,,,,,02-820-2906,37.48345,126.97955,2020.3.24
서울특별시동작구청,서울특별시 동작구 동작대로13길 18(사당1동 1010-1),,그린파킹,4,,,,,02-820-2906,37.48225,126.97957,2020.3.24
서울특별시동작구청,서울특별시 동작구 동작대로11길 42(사당1동 1017-28),,그린파킹,4,,,,,02-820-2906,37.48125,126.97942,2020.3.24
서울특별시동작구청,서울특별시 동작구 사당로26길 71(사당1동 1026-1),,그린파킹,3,,,,,02-820-2906,37.48065,126.97811,2020.3.24
서울특별시동작구청,서울특별시 동작구 사당로26길 48(사당1동 1016-46),,그린파킹,5,,,,,02-820-2906,37.48179,126.97808,2020.3.24
서울특별시동작구청,서울특별시 동작구 동작대로17길 33(사당1동 1012-40),,그린파킹,5,,,,,02-820-2906,37.48281,126.97824,2020.3.24
서울특별시동작구청,서울특별시 동작구 동작대로15길 84 (사당1동 1012-5),,그린파킹,4,,,,,02-820-2906,37.48243,126.97686,2020.3.24
서울특별시동작구청,서울특별시 동작구 사당로22길 60 (사당1동 426-17),,그린파킹,1,,,,,02-820-2906,37.48075,126.977,2020.3.24
서울특별시동작구청,서울특별시 동작구 동작대로11길 27(사당1동 1020-20),,그린파킹,4,,,,,02-820-2906,37.48124,126.98004,2020.3.24
서울특별시동작구청,서울특별시 동작구 국사봉7길 13(상도3동 303-18),,그린파킹,1,,,,,02-820-2906,37.49729,126.93119,2020.3.24
서울특별시동작구청,서울특별시 동작구 국사봉1길 122(상도3동 294-46),,그린파킹,3,,,,,02-820-2906,37.49627,126.93218,2020.3.24
서울특별시동작구청,서울특별시 동작구 국사봉8길 12(상도3동 299-59),,그린파킹,1,,,,,02-820-2906,37.49612,126.93035,2020.3.24
서울특별시동작구청,서울특별시 동작구 사당로23길 56(사당3동 708-610),,그린파킹,3,,,,,02-820-2906,37.4859,126.97548,2020.3.24
서울특별시동작구청,서울특별시 동작구 사당로16길 36-19 (사당4동 277-1),,그린파킹,3,,,,,02-820-2906,37.4822,126.97188,2020.3.24
서울특별시동작구청,서울특별시 동작구 사당로16길 44 (사당4동 275-39) ,,그린파킹,3,,,,,02-820-2906,37.48185,126.97253,2020.3.24
서울특별시동작구청,서울특별시 동작구 사당로16길 51-8(사당동 314-16),,그린파킹,2,,,,,02-820-2906,37.48125,126.97262,2020.3.24
서울특별시동작구청,서울특별시 동작구 사당로 20 나길58-14(사당4동 311-17),,그린파킹,4,,,,,02-820-2906,37.4811,126.97253,2020.3.24
서울특별시동작구청,서울특별시 동작구 사당로 20 나길 52-1(사당4동 314-9),,그린파킹,4,,,,,02-820-2906,37.48114,126.97325,2020.3.24
서울특별시동작구청,서울특별시 동작구 동작대로19길 53 (사당1동 1004-13),,그린파킹,3,,,,,02-820-2906,37.48348,126.97859,2020.3.24
서울특별시동작구청,서울특별시 동작구 동작대로15길 26(사당1동 1009-23),,그린파킹,4,,,,,02-820-2906,37.4823,126.98009,2020.3.24
서울특별시동작구청,서울특별시 동작구 사당로30길 96(사당1동 1029-37),,그린파킹,5,,,,,02-820-2906,37.48055,126.98075,2020.3.24
서울특별시동작구청,서울특별시 동작구 동작대로13길 7(사당1동 1019-1),,그린파킹,5,,,,,02-820-2906,37.48169,126.98089,2020.3.24
서울특별시동작구청,서울특별시 동작구 동작대로17길 5(사당1동 1008-1),,그린파킹,4,,,,,02-820-2906,37.48273,126.98095,2020.3.24
서울특별시동작구청,서울특별시 동작구 동작대로27다길 26(사당2동 138-3),,그린파킹,5,,,,,02-820-2906,37.48605,126.98008,2020.3.24
서울특별시동작구청,서울특별시 동작구 사당로16길 131(사당4동 303-89),,그린파킹,3,,,,,02-820-2906,37.47816,126.97044,2020.3.24
서울특별시동작구청,서울특별시 동작구 신대방14가길 60(신대방1동 632-9),,그린파킹,2,,,,,02-820-2906,37.48958,126.91382,2020.3.24
서울특별시동작구청,서울특별시 동작구 신대방1가길 14(신대방1동 694-24),,그린파킹,1,,,,,02-820-2906,37.48681,126.90915,2020.3.24
서울특별시동작구청,서울특별시 동작구 흑석로 105(흑석동 183-5 ) 중대병원,,교통단속,1,,,,,02-820-2906,37.50773,126.96109,2020.3.24
서울특별시동작구청,서울특별시 동작구 만양로 100(노량진1동 118-5 ) 서울특별시 동작구 만양로 정진학원 앞,,교통단속,1,,,,,02-820-2906,37.51246,126.94431,2020.3.24
서울특별시동작구청,서울특별시 동작구 만양로 79(노량진1동 224-1) 서울특별시 동작구 만양로 강남교회 앞,,교통단속,1,,,,,02-820-2906,37.51052,126.9446,2020.3.24
서울특별시동작구청,서울특별시 동작구 동작대로27길 18(사당2동 132-6) 사당2동 우성아파트 진입로,,교통단속,1,,,,,02-820-2906,37.48758,126.98109,2020.3.24
서울특별시동작구청,서울특별시 동작구 성대로 11(상도4동 248-17) 성대시장 사거리,,교통단속,1,,,,,02-820-2906,37.5,126.9324,2020.3.24
서울특별시동작구청,서울특별시 동작구 보라매로5가길 7(신대방2동 395-73) 보라매캐릭터그린빌,,교통단속,1,,,,,02-820-2906,37.49163,126.9247,2020.3.24
서울특별시동작구청,서울특별시 동작구 상도로 16(대방동 401-21) 서울공고 정류장,,교통단속,1,,,,,02-820-2906,37.49979,126.92245,2020.3.24
서울특별시동작구청,서울특별시 동작구 노들로 734(노량진1동 2-3) 노량진수산시장,,교통단속,1,,,,,02-820-2906,37.51558,126.94055,2020.3.24
서울특별시동작구청,서울특별시 동작구 사당로 243(사당3동 708-413) 남성지구대 사거리,,교통단속,1,,,,,02-820-2906,37.48328,126.97456,2020.3.24
서울특별시동작구청,서울특별시 동작구 서달로 166(흑석동 97-1),,교통단속,1,,,,,02-820-2906,37.50799,126.963,2020.3.24
서울특별시동작구청,서울특별시 동작구 여의대방로 250(대방동 501),,교통단속,1,,,,,02-820-2906,37.50907,126.9241,2020.3.24
서울특별시동작구청,서울특별시 동작구 만양로43(노량진1동 217-41),,교통단속,1,,,,,02-820-2906,37.50808,126.94732,2020.3.24
서울특별시동작구청,서울특별시 동작구 서달로 144(흑석동 86-117) 중대부초,,교통단속,1,,,,,02-820-2906,37.50618,126.96121,2020.3.24
서울특별시동작구청,서울특별시 동작구 여의대방로10길 24(신대방1동 492-200) 대방중학교,,교통단속,1,,,,,02-820-2906,37.49483,126.91464,2020.3.24
서울특별시동작구청,서울특별시 동작구 보라매로5길 20(신대방2동 425) 보라매병원,,교통단속,1,,,,,02-820-2906,37.49308,126.92325,2020.3.24
서울특별시동작구청,서울특별시 동작구 사당로 283(사당3동 150-10) 이수역 10번 출구,,교통단속,1,,,,,02-820-2906,37.48431,126.97888,2020.3.24
서울특별시동작구청,서울특별시 동작구 보라매로 113(대방동 405-11) 신대방삼거리역,,교통단속,1,,,,,02-820-2906,37.49965,126.92812,2020.3.24
서울특별시동작구청,서울특별시 동작구 사당로 214 (사당4동 712-10) 남성역 1번 출구,,교통단속,1,,,,,02-820-2906,37.48427,126.97195,2020.3.24
서울특별시동작구청,서울특별시 동작구 동작대로 29길 69(사당2동 120-4) 두성상가 앞,,교통단속,1,,,,,02-820-2906,37.4887,126.97839,2020.3.24
서울특별시동작구청,서울특별시 동작구 상도로 348(상도1동 475) 현대엠코 진입로,,교통단속,1,,,,,02-820-2906,37.49743,126.9525,2020.3.24
서울특별시동작구청,서울특별시 동작구 신대방1가길 51(신대방1동 695) 성원쌍떼빌 뒤길,,교통단속,1,,,,,02-820-2906,37.48664,126.90754,2020.3.24
서울특별시동작구청,서울특별시 동작구 흑석한강로13(흑석동 39-10) 흑석동주민센터 (어린이-88번 같이),,교통단속,1,,,,,02-820-2906,37.50557,126.96624,2020.3.24
서울특별시동작구청,서울특별시 동작구 남부순환로271길 14(사당1동 1041-11) 사당노인종합복지관 주변(방범-113 같이),,교통단속,1,,,,,02-820-2906,37.47732,126.98004,2020.3.24
서울특별시동작구청,서울특별시 동작구 여의대방로62길 14(대방동 101-5)  방범-35 같이,,교통단속,1,,,,,02-820-2906,37.5139,126.92794,2020.3.24
서울특별시동작구청,서울특별시 동작구 상도로 31길 19 (상도2동 527),,교통단속,1,,,,,02-820-2906,37.50525,126.94426,2020.3.24
서울특별시동작구청,서울특별시 동작구 장승배기로 4길 9 (상도2동 521),,교통단속,1,,,,,02-820-2906,37.50125,126.94124,2020.3.24
서울특별시동작구청,서울특별시 동작구 상도로 50길 33 (상도1동 470-8) (어린이-85번 같이),,교통단속,1,,,,,02-820-2906,37.49724,126.95031,2020.3.24
서울특별시동작구청,서울특별시 동작구 사당로 300 (사당1동 147-29),,교통단속,1,,,,,02-820-2906,37.48423,126.98095,2020.3.24
서울특별시동작구청,서울특별시 동작구 여의대방로 54길 12 (대방동 344-10),,교통단속,1,,,,,02-820-2906,37.51194,126.92634,2020.3.24
서울특별시동작구청,서울특별시 동작구 노들로 674 노량진수산시장(노량진2동 13-6)  ,,교통단속,1,,,,,02-820-2906,37.51471,126.93591,2020.3.24
서울특별시동작구청,서울특별시 동작구 노들로 674 노량진수산시장(노량진2동 13-6)  ,,교통단속,1,,,,,02-820-2906,37.5155,126.93949,2020.3.24
서울특별시동작구청,서울특별시 동작구 상도로15길 120(상도2동 365-7호),,교통단속,1,,,,,02-820-2906,37.50463,126.93741,2020.3.24
서울특별시동작구청,서울특별시 동작구 사당로16길 35(사당4동 316-4) 농협앞,,교통단속,1,,,,,02-820-2906,37.48185,126.97253,2020.3.24
서울특별시동작구청,서울특별시 동작구 여의대방로22길 77(신대방2동 361-2),,교통단속,1,,,,,02-820-2906,37.4978,126.92404,2020.3.24
서울특별시동작구청,서울특별시 동작구 사당로23길 112 이수역로이파크 아파트 정문,,교통단속,1,,,,,02-820-2906,37.48802,126.9728,2020.3.24
서울특별시동작구청,서울특별시 동작구 사당로23길 112 이수역로이파크 아파트 후문,,교통단속,1,,,,,02-820-2906,37.48887,126.97366,2020.3.24
서울특별시동작구청,서울특별시 동작구 상도동 34-21 노빌리티(e편한세상)입구,,교통단속,1,,,,,02-820-2906,37.50521,126.946634,2020.3.24
서울특별시동작구청,서울특별시 동작구 상도동 36-38 LG전자 건너편,,교통단속,1,,,,,02-820-2906,37.504028,126.947027,2020.3.24
서울특별시동작구청,서울특별시 동작구 흑석동 173-8 아크로리버하임 (107동 앞),,교통단속,1,,,,,02-820-2906,37.509961,126.960359,2020.3.24
서울특별시동작구청,서울특별시 동작구 흑석동 169-28 아크로리버하임 (104동 앞),,교통단속,1,,,,,02-820-2906,37.509137,126.960792,2020.3.24
서울특별시동작구청,서울특별시 동작구 흑석동 245-33 롯데캐슬에듀포레 입구,,교통단속,1,,,,,02-820-2906,37.504668,126.960846,2020.3.24
서울특별시동작구청,서울특별시 동작구 노량진로14길 33(노량진1동 83-10),,쓰레기단속,1,,,,,02-820-2906,37.51202,126.9427,2020.3.24
서울특별시동작구청,서울특별시 동작구 노량진로6길 63(노량진2동 289-90),,쓰레기단속,1,,,,,02-820-2906,37.51035,126.93623,2020.3.24
서울특별시동작구청,서울특별시 동작구 상도로47길 54(상도1동 333-13),,쓰레기단속,1,,,,,02-820-2906,37.5017,126.95204,2020.3.24
서울특별시동작구청,서울특별시 동작구 상도로15길112(상도동 359-5),,쓰레기단속,1,,,,,02-820-2906,37.50455,126.93697,2020.3.24
서울특별시동작구청,서울특별시 동작구 성대로6나길 21(상도3동 307-12),,쓰레기단속,1,,,,,02-820-2906,37.49793,126.93162,2020.3.24
서울특별시동작구청,서울특별시 동작구 양녕로25길 12(상도4동 210-254),,쓰레기단속,1,,,,,02-820-2906,37.49827,126.94311,2020.3.24
서울특별시동작구청,서울특별시 동작구 서달로12나길 2-5(흑석동 55-3),,쓰레기단속,1,,,,,02-820-2906,37.50662,126.96313,2020.3.24
서울특별시동작구청,서울특별시 동작구 동작대로 19(사당1동 1042-1),,쓰레기단속,1,,,,,02-820-2906,37.47831,126.9807,2020.3.24
서울특별시동작구청,서울특별시 동작구 동작대로35길 25(사당2동 71-2)  ,,쓰레기단속,1,,,,,02-820-2906,37.49117,126.98079,2020.3.24
서울특별시동작구청,서울특별시 동작구 사당로23길 242(사당3동 708-926),,쓰레기단속,1,,,,,02-820-2906,37.4923,126.96877,2020.3.24
서울특별시동작구청,서울특별시 동작구 사당로16길 28(사당4동 277-39),,쓰레기단속,1,,,,,02-820-2906,37.48176,126.97133,2020.3.24
서울특별시동작구청,서울특별시 동작구 사당로16다길 95(사당동 230-9),,쓰레기단속,1,,,,,02-820-2906,37.48449,126.96823,2020.3.24
서울특별시동작구청,서울특별시 동작구 대방동1길 29(대방동 396-16),,쓰레기단속,1,,,,,02-820-2906,37.50028,126.92447,2020.3.24
서울특별시동작구청,서울특별시 동작구 신대방2길 52(신대방1동 600-37),,쓰레기단속,1,,,,,02-820-2906,37.48892,126.91199,2020.3.24
서울특별시동작구청,서울특별시 동작구 국사봉길 22(신대방2동 338-23),,쓰레기단속,1,,,,,02-820-2906,37.49819,126.92926,2020.3.24
서울특별시동작구청,서울특별시 동작구 서달로13길 17(흑석동 181-23),,쓰레기단속,1,,,,,02-820-2906,37.50844,126.96199,2020.3.24
서울특별시동작구청,서울특별시 동작구 노량진로 6길 53앞(노량진2동 284-48 청수탕앞),,쓰레기단속,1,,,,,02-820-2906,37.51048,126.93605,2020.3.24
서울특별시동작구청,서울특별시 동작구 현충로 106길 (흑석동 9-787),,쓰레기단속,1,,,,,02-820-2906,37.50727,126.96521,2020.3.24
서울특별시동작구청,서울특별시 동작구 현충로 10길 91 앞(흑석동 281-4),,쓰레기단속,1,,,,,02-820-2906,37.50443,126.96934,2020.3.24
서울특별시동작구청,서울특별시 동작구 서달로 1752 흑석빗물펌프장(외수문),,기타,10,,,,,02-820-2906,37.50828,126.96308,2020.3.24
서울특별시동작구청,서울특별시 동작구 노량진로23가길 20 본동빗물펌프장(입구),,기타,4,,,,,02-820-2906,37.51505,126.95104,2020.3.24
서울특별시동작구청,서울특별시 동작구 노량진로17길 44 노량진빗물펌프장(외수위),,기타,9,,,,,02-820-2906,37.51617,126.94412,2020.3.24
서울특별시동작구청,서울특별시 동작구 노들로 6180 대방빗물펌프장(구제진기),,기타,9,,,,,02-820-2906,37.51432,126.93069,2020.3.24
서울특별시동작구청,서울특별시 동작구 신대방1길 109 신대방빗물펌프장(1수문),,기타,5,,,,,02-820-2906,37.48558,126.90698,2020.3.24
서울특별시동작구청,서울특별시 동작구 신대방2길 12 보라매빗물펌프장(운영실),,기타,2,,,,,02-820-2906,37.48797,126.91331,2020.3.24
서울특별시동작구청,서울특별시 동작구 노량진로 20-2 대방지하보도 ,,기타,6,,,,,02-820-2906,37.51333,126.92688,2020.3.24
서울특별시동작구청,서울특별시 동작구 노량진로32길 14-7 용양봉저정,,기타,5,,,,,02-820-2906,37.51286,126.95579,2020.3.24
서울특별시동작구청,서울특별시 동작구 상도로53길 39 실로암교회 옆 엘리베이터,,기타,1,,,,,02-820-2906,37.50058,126.95353,2020.3.24
서울특별시동작구청,서울특별시 동작구 상도동 159-334 상도지하차도,,기타,8,,,,,02-820-2906,37.502252,126.94628,2020.3.24
서울특별시동작구청,서울특별시 동작구 동작대로 9 (사당역 8번출구),,기타,1,,,,,02-820-2906,37.47732,126.9816,2020.3.24
서울특별시동작구청,서울특별시 동작구 신대방1길 109,,기타,1,,,,,02-820-2906,37.48497,126.90583,2020.3.24
서울특별시동작구청,서울특별시 동작구 대림로 19,,기타,1,,,,,02-820-2906,37.48695,126.91203,2020.3.24
서울특별시동작구청,서울특별시 동작구 신대방2길 14,,기타,1,,,,,02-820-2906,37.48911,126.91549,2020.3.24
서울특별시동작구청,서울특별시 동작구 여의대방로20길 33,,기타,1,,,,,02-820-2906,37.48989,126.9171,2020.3.24